,Unnamed: 0,Unnamed: 0.1,지역(시도),지역(시군구),검색지명,랭킹,검색지빈도,링크,월,년,계절,포스트개수,유형,검색지명2,주소,위도,경도,점수
0,0,0,충남,당진시,왜목마을,9.682565789473683,608,https://map.kakao.com/?q=당진시 왜목마을,1,2020,겨울,40526,"['AOI', '지역', '마을']",당진시 왜목마을,충남 당진시 석문면 교로리 844-4 ,37.04683729999999,126.5277158,10.777072368421054
1,1,2,충남,당진시,왜목마을해수욕장,16.318600368324127,543,https://map.kakao.com/?q=당진시 왜목마을해수욕장,1,2020,겨울,10178,"['여행/레저', '관광명소', '해수욕장']",당진시 왜목마을해수욕장,충남 당진시 석문면 교로리 844-12 ,37.04683729999999,126.5277158,12.547661141804788
2,2,3,충남,당진시,삽교호관광지,4.0542763157894735,608,https://map.kakao.com/?q=당진시 삽교호관광지,1,2020,겨울,4093,"['여행/레저', '관광명소', '관광단지']",당진시 삽교호관광지,충남 당진시 신평면 운정리 182 ,36.88799160000001,126.8263784,3.241907894736842
3,3,4,충남,당진시,해어름까페,7.408348457350272,551,https://map.kakao.com/?q=당진시 해어름까페,1,2020,겨울,474,"['생활편의', '카페', '커피전문점']",당진시 해어름까페,충남 당진시 신평면 매산리 29-10 ,36.9302556,126.8063583,5.237459165154263
4,4,5,충남,당진시,행담도휴게소,3.4391447368421053,608,https://map.kakao.com/?q=당진시 행담도휴게소,1,2020,겨울,21651,"['교통편의', '교통시설', '고속도로휴게소']",당진시 행담도휴게소,충남 당진시 신평면 매산리 513 ,36.9118034,126.7971572,4.544013157894737
5,5,6,충남,당진시,삽교호함상공원,20.109375,512,https://map.kakao.com/?q=당진시 삽교호함상공원,1,2020,겨울,4583,"['여행/레저', '관광명소', '공원']",당진시 삽교호함상공원,충남 당진시 신평면 운정리 197-3 ,36.8907704,126.8242581,14.6136328125
6,6,7,충남,당진시,아미미술관,18.666044776119406,536,https://map.kakao.com/?q=당진시 아미미술관,1,2020,겨울,21244,"['생활편의', '문화생활시설', '미술관']",당진시 아미미술관,충남 당진시 순성면 성북리 160-1 ,36.8612526,126.68025729999998,15.44429104477612
7,7,8,충남,당진시,카페피어라,20.94214876033058,121,https://map.kakao.com/?q=당진시 카페피어라,1,2020,겨울,2750,"['생활편의', '카페', '커피전문점']",당진시 카페피어라,충남 당진시 합덕읍 석우리 48-35 ,36.8053394,126.7401876,16.023140495867768
8,8,9,충남,당진시,장고항,19.46232876712329,292,https://map.kakao.com/?q=당진시 장고항,1,2020,겨울,18163,"['교통편의', '교통시설', '항구']",당진시 장고항,충남 당진시 석문면 장고항리 615-5 ,37.0305655,126.5598965,17.355753424657536
9,9,10,충남,당진시,도비도유람선터미널,22.435215946843854,301,https://map.kakao.com/?q=당진시 도비도유람선터미널,1,2020,겨울,170,"['교통편의', '교통시설', '항구']",당진시 도비도유람선터미널,충남 당진시 석문면 난지도리 558 ,37.051032,126.4335439,15.738538205980065
10,10,11,충남,홍성군,남당항,3.8009868421052633,608,https://map.kakao.com/?q=홍성군 남당항,1,2020,겨울,27235,"['교통편의', '교통시설', '항구']",홍성군 남당항,충남 홍성군 서부면 남당리 863 남당항로,36.5435969,126.483456,5.348355263157893
11,11,12,충남,서산시,해미읍성,2.8453947368421053,608,https://map.kakao.com/?q=서산시 해미읍성,1,2020,겨울,59506,"['여행/레저', '관광명소', '성']",서산시 해미읍성,충남 서산시 해미면 읍내리 40-1 ,36.7129086,126.5478425,7.86407894736842
12,12,13,충남,서산시,간월암,14.168402777777779,576,https://map.kakao.com/?q=서산시 간월암,1,2020,겨울,34510,"['생활편의', '종교', '절']",서산시 간월암,충남 서산시 부석면 간월도리 16-11 ,36.603653400000006,126.411209,13.512673611111113
13,13,14,충남,서산시,삼길포항,11.141680395387151,607,https://map.kakao.com/?q=서산시 삼길포항,1,2020,겨울,13489,"['교통편의', '교통시설', '항구']",서산시 삼길포항,충남 서산시 대산읍 화곡리 1891 ,36.99255520000001,126.4390503,9.132520593080724
14,14,15,충남,서산시,서산동부시장,19.429667519181585,391,https://map.kakao.com/?q=서산시 서산동부시장,1,2020,겨울,19230,"['쇼핑', '시장', '종합시장']",서산시 서산동부시장,충남 서산시 동문동 900 ,36.7823989,126.4553428,16.55166240409207
15,15,16,충남,서산시,현대오일뱅크대산공장,24.72941176470589,85,https://map.kakao.com/?q=서산시 현대오일뱅크대산공장,1,2020,겨울,4559,"['건물/시설', '창고', '저유소']",서산시 현대오일뱅크대산공장,충남 서산시 대산읍 대죽리 640-6 ,37.000816,126.4019857,20.528705882352945
16,16,17,충남,아산시,파라다이스스파도고,8.8359375,512,https://map.kakao.com/?q=아산시 파라다이스스파도고,1,2020,겨울,8685,"['여행/레저', '관광명소', '온천']",아산시 파라다이스스파도고,충남 아산시 선장면 신성리 260 ,36.7662476,126.8865625,7.2029296874999975
17,17,18,충남,아산시,아산스파비스,14.841823056300267,373,https://map.kakao.com/?q=아산시 아산스파비스,1,2020,겨울,18277,"['여행/레저', '관광명소', '온천']",아산시 아산스파비스,충남 아산시 음봉면 신수리 288-6 ,36.8559728,126.9801018,13.329276139410188
18,18,19,충남,아산시,외암리민속마을,16.001953125,512,https://map.kakao.com/?q=아산시 외암리민속마을,1,2020,겨울,19333,"['여행/레저', '관광명소', '고택/생가/민속마을']",아산시 외암리민속마을,충남 아산시 송악면 외암리 84 ,36.7298535,127.0179639,13.466953125
19,19,20,충남,아산시,모나무르,19.850877192982455,114,https://map.kakao.com/?q=아산시 모나무르,1,2020,겨울,2036,"['생활편의', '문화생활시설', '전시장']",아산시 모나무르,충남 아산시 장존동 185-7 ,36.749976200000006,126.9928135,14.967192982456135
20,20,21,충남,아산시,세계꽃식물원,18.88888888888889,117,https://map.kakao.com/?q=아산시 세계꽃식물원,1,2020,겨울,19469,"['여행/레저', '관광명소', '동식물원']",아산시 세계꽃식물원,충남 아산시 도고면 봉농리 577 ,36.7495455,126.8607345,23.20632478632479
21,21,22,충남,아산시,신정호국민관광지,18.045454545454547,308,https://map.kakao.com/?q=아산시 신정호국민관광지,1,2020,겨울,1491,"['여행/레저', '관광명소', '관광단지']",아산시 신정호국민관광지,충남 아산시 점양동 ,36.7690153,126.9691337,12.922272727272727
22,22,23,충남,서천군,서천특화시장,1.3733552631578947,608,https://map.kakao.com/?q=서천군 서천특화시장,1,2020,겨울,8445,"['쇼핑', '시장', '시장기타']",서천군 서천특화시장,충남 서천군 서천읍 군사리 686-1 ,36.0750035,126.6870115,1.7947368421052632
23,23,24,충남,서천군,국립생태원,3.28125,608,https://map.kakao.com/?q=서천군 국립생태원,1,2020,겨울,42784,"['여행/레저', '관광명소', '국/도립공원']",서천군 국립생태원,충남 서천군 마서면 덕암리 725 ,36.0411299,126.7085355,6.518980263157897
24,24,25,충남,서천군,장항스카이워크,3.8322368421052633,608,https://map.kakao.com/?q=서천군 장항스카이워크,1,2020,겨울,8060,"['여행/레저', '관광명소', '전망대']",서천군 장항스카이워크,충남 서천군 장항읍 송림리 산 58-48 ,36.0182953,126.6652544,3.4779605263157887
25,25,26,충남,서천군,춘장대해수욕장,3.6414473684210527,608,https://map.kakao.com/?q=서천군 춘장대해수욕장,1,2020,겨울,18040,"['여행/레저', '관광명소', '해수욕장']",서천군 춘장대해수욕장,충남 서천군 서면 도둔리 산 46-1 ,36.1588701,126.5315582,4.329276315789474
26,26,27,충남,서천군,홍원항,4.034539473684212,608,https://map.kakao.com/?q=서천군 홍원항,1,2020,겨울,24162,"['교통편의', '교통시설', '항구']",서천군 홍원항,충남 서천군 서면 도둔리 홍원길,36.1552419,126.5018778,5.208585526315789
27,27,28,충남,서천군,희리산해송자연휴양림,14.454011741682976,511,https://map.kakao.com/?q=서천군 희리산해송자연휴양림,1,2020,겨울,4418,"['여행/레저', '관광명소', '자연휴양림']",서천군 희리산해송자연휴양림,충남 서천군 종천면 산천리 산 35-1 ,36.1130631,126.6657284,10.636555772994127
28,28,29,충남,서천군,신성리갈대밭,14.535087719298243,570,https://map.kakao.com/?q=서천군 신성리갈대밭,1,2020,겨울,22373,"['여행/레저', '관광명소', '관광명소기타']",서천군 신성리갈대밭,충남 서천군 한산면 신성리 125-1 ,36.06829329999999,126.8607835,12.529614035087715
29,29,30,충남,서천군,금강하구둑관광단지,14.971760797342196,602,https://map.kakao.com/?q=서천군 금강하구둑관광단지,1,2020,겨울,11030,"['여행/레저', '관광명소', '관광단지']",서천군 금강하구둑관광단지,충남 서천군 마서면 도삼리 751-31 ,36.0186348,126.74172040000002,11.579568106312294
30,30,31,충남,서천군,서천생태공원,13.182844243792324,443,https://map.kakao.com/?q=서천군 서천생태공원,1,2020,겨울,7038,"['여행/레저', '관광명소', '공원']",서천군 서천생태공원,전북 군산시 성산면 성덕리 419-6 ,36.02250340000001,126.7670148,10.181218961625282
31,31,32,충남,서천군,서천동백꽃주꾸미축제,15.238805970149254,335,https://map.kakao.com/?q=서천군 서천동백꽃주꾸미축제,1,2020,겨울,3124,"['여행/레저', '관광명소', '축제']",서천군 서천동백꽃주꾸미축제,충남 서천군 서면 마량리 339-6 마량포구 일원,36.12936420000001,126.5036472,11.226686567164178
32,32,34,충남,서천군,마량리동백나무숲,18.046948356807512,213,https://map.kakao.com/?q=서천군 마량리동백나무숲,1,2020,겨울,6494,"['여행/레저', '관광명소', '문화유적지']",서천군 마량리동백나무숲,충남 서천군 서면 마량리 313-4 ,36.1366419,126.4939524,14.462159624413145
33,33,35,충남,금산군,하늘물빛정원,3.585526315789473,608,https://map.kakao.com/?q=금산군 하늘물빛정원,1,2020,겨울,10883,"['여행/레저', '레저/스포츠', '관광농원']",금산군 하늘물빛정원,충남 금산군 추부면 요광리 713-1 ,36.2231052,127.4831383,3.5838486842105257
34,34,37,충남,금산군,금산인삼축제,13.039033457249069,538,https://map.kakao.com/?q=금산군 금산인삼축제,1,2020,겨울,13112,"['여행/레저', '관광명소', '축제']",금산군 금산인삼축제,충남 금산군 금산읍 신대리 392 2층,36.1000256,127.5006731,10.589628252788104
35,35,38,충남,금산군,인삼랜드휴게소통영방향,15.24406779661017,590,https://map.kakao.com/?q=금산군 인삼랜드휴게소통영방향,1,2020,겨울,8062,"['교통편의', '교통시설', '고속도로휴게소']",금산군 인삼랜드휴게소통영방향,충남 금산군 군북면 외부리 721-25 ,36.152801200000006,127.4959813,11.490711864406776
36,36,39,충남,금산군,캐슬1477,18.939849624060148,266,https://map.kakao.com/?q=금산군 캐슬1477,1,2020,겨울,915,"['생활편의', '카페', '커피전문점']",금산군 캐슬1477,충남 금산군 금산읍 상리 185-8 ,36.10568540000001,127.488861,13.464285714285712
37,37,40,충남,금산군,금산군,21.153439153439148,378,https://map.kakao.com/?q=금산군 금산군,1,2020,겨울,163015,"['AOI', '지역', '시/군/구']",금산군 금산군,충남 금산군 금산읍 중도리 203-1 ,36.11188720000001,127.49161770000002,40.68280423280423
38,38,41,충남,금산군,더버킷유니온,23.85333333333333,75,https://map.kakao.com/?q=금산군 더버킷유니온,1,2020,겨울,1136,"['생활편의', '카페', '커피전문점']",금산군 더버킷유니온,충남 금산군 금성면 파초리 564 ,36.1375499,127.46122,17.606133333333332
39,39,42,충남,서천군,서천군,24.98872180451128,266,https://map.kakao.com/?q=서천군 서천군,1,2020,겨울,149255,"['AOI', '지역', '시/군/구']",서천군 서천군,충남 서천군 종천면 화산리 131-2 ,36.0937326,126.6721936,51.15864661654135
40,40,43,충남,서천군,서천휴리조트펜션,21.444444444444443,90,https://map.kakao.com/?q=서천군 서천휴리조트펜션,1,2020,겨울,140,"['여행/레저', '숙박', '펜션']",서천군 서천휴리조트펜션,충남 서천군 장항읍 송림리 760-9 ,36.0238653,126.67324779999998,15.104444444444445
41,41,44,충남,논산시,탑정호,7.001647446457992,607,https://map.kakao.com/?q=논산시 탑정호,1,2020,겨울,19017,"['여행/레저', '관광명소', '호수']",논산시 탑정호,충남 논산시 부적면 신풍리 542 ,36.1829802,127.176227,6.7809225700164735
42,42,45,충남,논산시,논산화지중앙시장,11.442244224422442,606,https://map.kakao.com/?q=논산시 논산화지중앙시장,1,2020,겨울,2064,"['쇼핑', '시장', '재래시장']",논산시 논산화지중앙시장,충남 논산시 대교동 63-15 ,36.2087193,127.08401090000002,8.213927392739274
43,43,46,충남,논산시,선샤인랜드,12.32929292929293,495,https://map.kakao.com/?q=논산시 선샤인랜드,1,2020,겨울,17000,"['여행/레저', '레저/스포츠', '놀이시설']",논산시 선샤인랜드,충남 논산시 연무읍 황화정리 859-44 ,36.1026238,127.102236,10.691111111111107
44,44,47,충남,논산시,스타벅스논산중앙점,22.667458432304038,421,https://map.kakao.com/?q=논산시 스타벅스논산중앙점,1,2020,겨울,48,"['생활편의', '카페', '커피전문점']",논산시 스타벅스논산중앙점,충남 논산시 취암동 1061-10 ,36.2012496,127.0899058,15.874061757719714
45,45,48,충남,논산시,탑정호수변생태공원,17.75068493150685,365,https://map.kakao.com/?q=논산시 탑정호수변생태공원,1,2020,겨울,2277,"['여행/레저', '관광명소', '공원']",논산시 탑정호수변생태공원,충남 논산시 부적면 충곡리 287-8 ,36.191491,127.1718394,12.799780821917805
46,46,50,충남,공주시,동학사,2.111842105263158,608,https://map.kakao.com/?q=공주시 동학사,1,2020,겨울,108387,"['생활편의', '종교', '절']",공주시 동학사,충남 공주시 반포면 학봉리 789 ,36.3533,127.2196327,12.174375
47,47,51,충남,공주시,마곡사,5.572368421052633,608,https://map.kakao.com/?q=공주시 마곡사,1,2020,겨울,66256,"['생활편의', '종교', '절']",공주시 마곡사,충남 공주시 사곡면 운암리 567 ,36.5585432,127.0120353,10.439078947368422
48,48,52,충남,공주시,국립공주박물관,14.867446393762185,513,https://map.kakao.com/?q=공주시 국립공주박물관,1,2020,겨울,16234,"['생활편의', '문화생활시설', '박물관/기념관']",공주시 국립공주박물관,충남 공주시 웅진동 360 ,36.4658103,127.1114266,12.305925925925925
49,49,53,충남,공주시,공산성,11.738255033557047,596,https://map.kakao.com/?q=공주시 공산성,1,2020,겨울,56136,"['여행/레저', '관광명소', '성']",공주시 공산성,충남 공주시 금성동 65-3 ,36.4650154,127.1236051,13.868053691275167
50,50,54,충남,공주시,정안알밤휴게소천안방향,23.140298507462678,335,https://map.kakao.com/?q=공주시 정안알밤휴게소천안방향,1,2020,겨울,3472,"['교통편의', '교통시설', '고속도로휴게소']",공주시 정안알밤휴게소천안방향,충남 공주시 정안면 장원리 507-6 ,36.5714942,127.114701,16.82005970149253
51,51,55,충남,공주시,정안알밤휴게소순천방향,23.80314960629921,254,https://map.kakao.com/?q=공주시 정안알밤휴게소순천방향,1,2020,겨울,2096,"['교통편의', '교통시설', '고속도로휴게소']",공주시 정안알밤휴게소순천방향,충남 공주시 정안면 장원리 507-2 ,36.57160770000001,127.1122652,17.157322834645665
52,52,56,충남,공주시,공주산성시장,19.554852320675106,474,https://map.kakao.com/?q=공주시 공주산성시장,1,2020,겨울,17116,"['쇼핑', '시장', '종합시장']",공주시 공주산성시장,충남 공주시 산성동 190-1 ,36.45881869999999,127.1227566,15.854978902953588
53,53,57,충남,공주시,신원사,22.161803713527853,377,https://map.kakao.com/?q=공주시 신원사,1,2020,겨울,21134,"['생활편의', '종교', '절']",공주시 신원사,충남 공주시 계룡면 양화리 8 ,36.33524170000001,127.1839734,18.876763925729442
54,54,58,충남,부여군,롯데부여리조트,1.9780876494023905,502,https://map.kakao.com/?q=부여군 롯데부여리조트,1,2020,겨울,5409,"['여행/레저', '숙박', '콘도/리조트']",부여군 롯데부여리조트,충남 부여군 규암면 합정리 578 ,36.3041327,126.90056570000002,2.031155378486056
55,55,59,충남,부여군,국립부여박물관,10.454849498327759,598,https://map.kakao.com/?q=부여군 국립부여박물관,1,2020,겨울,16781,"['생활편의', '문화생활시설', '박물관/기념관']",부여군 국립부여박물관,충남 부여군 부여읍 동남리 산 18-2 ,36.2763723,126.9191297,9.002107023411371
56,56,60,충남,부여군,궁남지,4.595394736842105,608,https://map.kakao.com/?q=부여군 궁남지,1,2020,겨울,68096,"['여행/레저', '관광명소', '문화유적지']",부여군 궁남지,충남 부여군 부여읍 동남리 117 ,36.2696564,126.9122753,9.936776315789476
57,57,61,충남,부여군,백제문화단지,8.524752475247524,606,https://map.kakao.com/?q=부여군 백제문화단지,1,2020,겨울,22614,"['여행/레저', '관광명소', '관광단지']",부여군 백제문화단지,충남 부여군 규암면 합정리 530 ,36.3062413,126.9065353,8.206336633663366
58,58,62,충남,부여군,낙화암,8.29324546952224,607,https://map.kakao.com/?q=부여군 낙화암,1,2020,겨울,43845,"['여행/레저', '관광명소', '문화유적지']",부여군 낙화암,충남 부여군 부여읍 쌍북리 678-2 ,36.2903029,126.9148977,10.139209225700164
59,59,63,충남,부여군,부여중앙시장,22.976608187134506,342,https://map.kakao.com/?q=부여군 부여중앙시장,1,2020,겨울,153091,"['쇼핑', '시장', '재래시장']",부여군 부여중앙시장,충남 부여군 부여읍 구아리 164-1 ,36.2818336,126.9121676,42.941695906432756
60,60,64,충남,부여군,부여군,24.91266375545852,229,https://map.kakao.com/?q=부여군 부여군,1,2020,겨울,158984,"['AOI', '지역', '시/군/구']",부여군 부여군,충남 부여군 부여읍 구아리 136 ,36.2833159,126.90957240000002,59.09406113537119
61,61,65,충남,부여군,무량사,21.420718816067648,473,https://map.kakao.com/?q=부여군 무량사,1,2020,겨울,26886,"['생활편의', '종교', '절']",부여군 무량사,충남 부여군 외산면 만수리 116 ,36.31698460000001,126.6929223,18.40498942917548
62,62,66,충남,금산군,대둔산자연휴양림,22.170370370370367,135,https://map.kakao.com/?q=금산군 대둔산자연휴양림,1,2020,겨울,10404,"['여행/레저', '관광명소', '자연휴양림']",금산군 대둔산자연휴양림,충남 금산군 진산면 묵산리 산 87-13 ,36.1227595,127.3440305,20.143259259259256
63,63,68,충남,공주시,탄천휴게소논산방향,16.666666666666668,24,https://map.kakao.com/?q=공주시 탄천휴게소논산방향,1,2020,겨울,385,"['교통편의', '교통시설', '고속도로휴게소']",공주시 탄천휴게소논산방향,충남 공주시 탄천면 광명리 54-11 ,36.3204786,127.070067,12.629166666666665
64,64,69,충남,공주시,EV충전소탄천순천방향,15.0,1,https://map.kakao.com/?q=공주시 EV충전소탄천순천방향,1,2020,겨울,98,"['교통편의', '자동차시설', 'EV충전소']",공주시 EV충전소탄천순천방향,충남 공주시 탄천면 광명리 54-1 ,36.32022329999999,127.0711959,16.38
65,65,71,충남,홍성군,홍성남당항새조개축제,15.789156626506026,166,https://map.kakao.com/?q=홍성군 홍성남당항새조개축제,1,2020,겨울,3989,"['여행/레저', '관광명소', '축제']",홍성군 홍성남당항새조개축제,충남 홍성군 서부면 남당리 남당항 일원,36.538985,126.4697977,12.49421686746988
66,66,72,충남,홍성군,홍성남당항대하축제,16.1003861003861,259,https://map.kakao.com/?q=홍성군 홍성남당항대하축제,1,2020,겨울,4436,"['여행/레저', '관광명소', '축제']",홍성군 홍성남당항대하축제,충남 홍성군 서부면 남당리 861 남당항 일원,36.538985,126.4697977,12.297915057915056
67,67,73,충남,부여군,사랑나무,14.946850393700789,508,https://map.kakao.com/?q=부여군 사랑나무,1,2020,겨울,43201,"['여행/레저', '관광명소', '촬영지']",부여군 사랑나무,충남 부여군 장암면 지토리 571-5 ,36.2008574,126.9073045,15.565275590551181
68,68,74,충남,부여군,정림사지5층석탑,20.03512880562061,427,https://map.kakao.com/?q=부여군 정림사지5층석탑,1,2020,겨울,13719,"['여행/레저', '관광명소', '탑']",부여군 정림사지5층석탑,충남 부여군 부여읍 동남리 254 ,36.2797968,126.9133446,15.952318501170964
69,69,75,충남,부여군,백제역사문화관,24.344537815126053,119,https://map.kakao.com/?q=부여군 백제역사문화관,1,2020,겨울,4973,"['생활편의', '문화생활시설', '전시장']",부여군 백제역사문화관,충남 부여군 규암면 합정리 597 ,36.308865,126.9023453,19.548571428571428
70,70,76,충남,부여군,부여서동연꽃축제,13.789340101522846,394,https://map.kakao.com/?q=부여군 부여서동연꽃축제,1,2020,겨울,8162,"['여행/레저', '관광명소', '축제']",부여군 부여서동연꽃축제,충남 부여군 부여읍 동남리 117 ,36.2696564,126.9122753,10.895482233502538
71,71,77,충남,계룡시,스타벅스계룡대로DT점,19.39455782312925,588,https://map.kakao.com/?q=계룡시 스타벅스계룡대로DT점,1,2020,겨울,9,"['생활편의', '카페', '커피전문점']",계룡시 스타벅스계룡대로DT점,충남 계룡시 엄사면 엄사리 284 ,36.2883806,127.2443977,13.577108843537411
72,72,79,충남,아산시,웜사이트,24.555555555555557,36,https://map.kakao.com/?q=아산시 웜사이트,1,2020,겨울,811,"['생활편의', '카페', '커피전문점']",아산시 웜사이트,"충남 아산시 신창면 창암리 1-16 1,2층",36.7670963,126.9546758,18.540555555555557
73,73,80,충남,아산시,현충사,19.427350427350426,234,https://map.kakao.com/?q=아산시 현충사,1,2020,겨울,59457,"['여행/레저', '관광명소', '문화유적지']",아산시 현충사,충남 아산시 염치읍 백암리 298-1 ,36.806513,127.0308048,28.844529914529915
74,74,81,충남,공주시,어썸845,18.17326732673268,404,https://map.kakao.com/?q=공주시 어썸845,1,2020,겨울,1274,"['생활편의', '카페', '커피전문점']",공주시 어썸845,충남 공주시 반포면 학봉리 700 ,36.3593696,127.2442814,12.910495049504954
75,75,82,충남,홍성군,홍주문화체육센터,15.551724137931034,29,https://map.kakao.com/?q=홍성군 홍주문화체육센터,1,2020,겨울,1438,"['생활편의', '문화생활시설', '문화센터']",홍성군 홍주문화체육센터,충남 홍성군 홍성읍 소향리 397-118 ,36.60740139999999,126.6436943,13.861379310344827
76,76,83,충남,예산군,예당호출렁다리,2.2222222222222223,567,https://map.kakao.com/?q=예산군 예당호출렁다리,1,2020,겨울,8956,"['여행/레저', '관광명소', '관광명소기타']",예산군 예당호출렁다리,충남 예산군 응봉면 후사리 35 ,36.6389341,126.8017694,2.503280423280424
77,77,84,충남,예산군,스플라스리솜,4.420792079207921,606,https://map.kakao.com/?q=예산군 스플라스리솜,1,2020,겨울,2177,"['여행/레저', '숙박', '콘도/리조트']",예산군 스플라스리솜,충남 예산군 덕산면 사동리 362 ,36.6939718,126.6562206,3.31009900990099
78,78,85,충남,예산군,수덕사,3.84375,608,https://map.kakao.com/?q=예산군 수덕사,1,2020,겨울,98196,"['생활편의', '종교', '절']",예산군 수덕사,충남 예산군 덕산면 사천리 19 ,36.6623679,126.6226843,12.381019736842106
79,79,86,충남,예산군,스플라스워터파크,8.295154185022026,454,https://map.kakao.com/?q=예산군 스플라스워터파크,1,2020,겨울,1124,"['여행/레저', '관광명소', '온천']",예산군 스플라스워터파크,충남 예산군 덕산면 사동리 362 ,36.6939718,126.6562206,5.955154185022026
80,80,87,충남,예산군,덕산싸이판온천,24.82658959537572,173,https://map.kakao.com/?q=예산군 덕산싸이판온천,1,2020,겨울,634,"['여행/레저', '관광명소', '온천']",예산군 덕산싸이판온천,충남 예산군 덕산면 사동리 351 ,36.69457970000001,126.6523618,17.598497109826585
81,81,88,충남,예산군,예산장터삼국축제,17.27112676056338,284,https://map.kakao.com/?q=예산군 예산장터삼국축제,1,2020,겨울,1041,"['여행/레저', '관광명소', '축제']",예산군 예산장터삼국축제,충남 예산군 예산읍 대회리 233-4 ,36.6761459,126.8479217,12.309718309859154
82,82,89,충남,예산군,의좋은형제공원,23.52325581395349,86,https://map.kakao.com/?q=예산군 의좋은형제공원,1,2020,겨울,4259,"['여행/레저', '관광명소', '공원']",예산군 의좋은형제공원,충남 예산군 대흥면 상중리 ,36.5988546,126.7851335,19.437674418604647
83,83,90,충남,예산군,예산황새공원,21.507177033492823,209,https://map.kakao.com/?q=예산군 예산황새공원,1,2020,겨울,3684,"['여행/레저', '관광명소', '공원']",예산군 예산황새공원,충남 예산군 광시면 대리 230 ,36.5422248,126.8015069,16.11263157894737
84,84,91,충남,예산군,아그로랜드태신목장,13.341708542713569,398,https://map.kakao.com/?q=예산군 아그로랜드태신목장,1,2020,겨울,4161,"['여행/레저', '관광명소', '체험농가']",예산군 아그로랜드태신목장,충남 예산군 고덕면 상몽리 442-1 ,36.800866600000006,126.7041579,9.966482412060301
85,85,92,충남,예산군,옛날돈가스,25.30120481927711,83,https://map.kakao.com/?q=예산군 옛날돈가스,1,2020,겨울,217784,"['생활편의', '음식점', '전문음식점']",예산군 옛날돈가스,충남 예산군 예산읍 예산리 701-7 ,36.676626,126.8434372,175.14506024096386
86,86,93,충남,천안시 동남구,독립기념관,12.858649789029537,474,https://map.kakao.com/?q=천안시 동남구 독립기념관,1,2020,겨울,124921,"['생활편의', '문화생활시설', '박물관/기념관']",천안시 동남구 독립기념관,충남 천안시 동남구 목천읍 남화리 230-1 ,36.7869062,127.2227425,24.81383966244725
87,87,94,충남,천안시 동남구,상록리조트눈썰매장,18.066666666666666,30,https://map.kakao.com/?q=천안시 동남구 상록리조트눈썰매장,1,2020,겨울,1471,"['여행/레저', '레저/스포츠', '눈썰매장']",천안시 동남구 상록리조트눈썰매장,충남 천안시 동남구 수신면 장산리 669-15 ,36.7402408,127.2855817,15.588666666666667
88,88,95,충남,천안시 동남구,천안중앙시장,23.9247311827957,93,https://map.kakao.com/?q=천안시 동남구 천안중앙시장,1,2020,겨울,76520,"['쇼핑', '시장', '재래시장']",천안시 동남구 천안중앙시장,충남 천안시 동남구 사직동 263 ,36.8002692,127.1484548,66.11505376344086
89,89,96,충남,천안시 동남구,교토리,15.512953367875648,193,https://map.kakao.com/?q=천안시 동남구 교토리,1,2020,겨울,2255,"['생활편의', '카페', '커피전문점']",천안시 동남구 교토리,충남 천안시 동남구 북면 사담리 95-2 ,36.8316401,127.2714169,11.560103626943006
90,90,99,충남,청양군,세계조롱박축제,9.268292682926827,123,https://map.kakao.com/?q=청양군 세계조롱박축제,1,2020,겨울,3155,"['여행/레저', '관광명소', '축제']",청양군 세계조롱박축제,충남 청양군 정산면 천장리 ,36.4102322,126.903613,8.02682926829268
91,91,100,충남,청양군,천장호출렁다리,2.4276315789473686,608,https://map.kakao.com/?q=청양군 천장호출렁다리,1,2020,겨울,11775,"['여행/레저', '관광명소', '관광명소기타']",청양군 천장호출렁다리,충남 청양군 정산면 천장리 112-6 ,36.4145314,126.9217978,2.8613486842105265
92,92,101,충남,청양군,알프스마을,12.94413407821229,179,https://map.kakao.com/?q=청양군 알프스마을,1,2020,겨울,161341,"['AOI', '지역', '마을']",청양군 알프스마을,충남 청양군 정산면 천장리 164-1 ,36.4097434,126.914249,63.141675977653634
93,93,102,충남,청양군,청양눈썰매,15.047619047619047,42,https://map.kakao.com/?q=청양군 청양눈썰매,1,2020,겨울,3057,"['여행/레저', '레저/스포츠', '눈썰매장']",청양군 청양눈썰매,충남 청양군 정산면 천장리 226-34 ,36.4094284,126.9121127,14.900476190476189
94,94,103,충남,청양군,칠갑산자연휴양림,4.94195688225539,603,https://map.kakao.com/?q=청양군 칠갑산자연휴양림,1,2020,겨울,3532,"['여행/레저', '관광명소', '자연휴양림']",청양군 칠갑산자연휴양림,충남 청양군 대치면 광대리 산 69-8 ,36.431286,126.84215159999998,3.8108126036484236
95,95,104,충남,청양군,청양목재문화자연사체험관,14.57391304347826,230,https://map.kakao.com/?q=청양군 청양목재문화자연사체험관,1,2020,겨울,787,"['여행/레저', '관광명소', '관광명소기타']",청양군 청양목재문화자연사체험관,충남 청양군 대치면 광대리 316-17 ,36.4388233,126.8498648,10.407043478260867
96,96,106,충남,청양군,칠갑산장승공원,20.233183856502247,223,https://map.kakao.com/?q=청양군 칠갑산장승공원,1,2020,겨울,5502,"['여행/레저', '관광명소', '공원']",청양군 칠갑산장승공원,충남 청양군 대치면 장곡리 ,36.412458,126.854967,15.643587443946192
97,97,107,충남,청양군,청양칠갑산장승문화축제,21.590163934426236,61,https://map.kakao.com/?q=청양군 청양칠갑산장승문화축제,1,2020,겨울,5102,"['여행/레저', '관광명소', '축제']",청양군 청양칠갑산장승문화축제,충남 청양군 대치면 장곡리 75 칠갑산 장승공원일원,36.4100238,126.8510257,20.13147540983607
98,98,108,충남,청양군,청양칠갑산천문대,21.172549019607846,255,https://map.kakao.com/?q=청양군 청양칠갑산천문대,1,2020,겨울,3692,"['여행/레저', '관광명소', '관광명소기타']",청양군 청양칠갑산천문대,충남 청양군 정산면 마치리 526-3 ,36.433541700000006,126.8898792,15.689490196078431
99,99,109,충남,청양군,청양시장,16.629385964912277,456,https://map.kakao.com/?q=청양군 청양시장,1,2020,겨울,166073,"['쇼핑', '시장', '종합시장']",청양군 청양시장,충남 청양군 청양읍 읍내리 178-4 ,36.450536,126.8017622,33.49228070175438
100,100,110,충남,청양군,장곡사,16.911522633744855,486,https://map.kakao.com/?q=청양군 장곡사,1,2020,겨울,22996,"['생활편의', '종교', '절']",청양군 장곡사,충남 청양군 대치면 장곡리 15 ,36.4172886,126.8595665,14.677078189300413
101,101,111,충남,청양군,청양군백제문화체험박물관,25.33333333333333,33,https://map.kakao.com/?q=청양군 청양군백제문화체험박물관,1,2020,겨울,585,"['생활편의', '문화생활시설', '박물관/기념관']",청양군 청양군백제문화체험박물관,충남 청양군 대치면 장곡리 153-5 ,36.4057749,126.8455828,18.79696969696969
102,102,112,충남,청양군,블루쉽,24.5,2,https://map.kakao.com/?q=청양군 블루쉽,1,2020,겨울,203,"['생활편의', '카페', '커피전문점']",청양군 블루쉽,충남 청양군 청양읍 읍내리 382-4 ,36.4456402,126.8012553,23.24
103,103,113,충남,청양군,청양군,22.115625,320,https://map.kakao.com/?q=청양군 청양군,1,2020,겨울,125525,"['AOI', '지역', '시/군/구']",청양군 청양군,충남 청양군 청양읍 읍내리 261-1 ,36.4551521,126.8049308,39.016875
104,104,114,충남,청양군,칠갑산오토캠핑장,16.387387387387392,333,https://map.kakao.com/?q=청양군 칠갑산오토캠핑장,1,2020,겨울,1723,"['여행/레저', '레저/스포츠', '캠프장']",청양군 칠갑산오토캠핑장,충남 청양군 대치면 작천리 30-12 ,36.395039,126.8637263,11.781621621621625
105,105,115,충남,보령시,대천해수욕장,1.2450657894736843,608,https://map.kakao.com/?q=보령시 대천해수욕장,1,2020,겨울,133552,"['여행/레저', '관광명소', '해수욕장']",보령시 대천해수욕장,충남 보령시 신흑동 2267-3 ,36.32230379999999,126.5263893,14.051019736842106
106,106,116,충남,보령시,보령천북굴축제,9.446153846153846,195,https://map.kakao.com/?q=보령시 보령천북굴축제,1,2020,겨울,2948,"['여행/레저', '관광명소', '축제']",보령시 보령천북굴축제,충남 보령시 천북면 장은리 1069 굴단지 내,36.5080405,126.4867719,7.519384615384616
107,107,117,충남,보령시,대천항,2.4917763157894743,608,https://map.kakao.com/?q=보령시 대천항,1,2020,겨울,39607,"['교통편의', '교통시설', '항구']",보령시 대천항,충남 보령시 신흑동 2245 ,36.32230379999999,126.5263893,5.6528289473684215
108,108,118,충남,보령시,한화리조트대천,6.882235528942116,501,https://map.kakao.com/?q=보령시 한화리조트대천,1,2020,겨울,2041,"['여행/레저', '숙박', '콘도/리조트']",보령시 한화리조트대천,충남 보령시 신흑동 2017 ,36.3055967,126.5160485,5.061996007984032
109,109,119,충남,보령시,무창포해수욕장,4.8305921052631575,608,https://map.kakao.com/?q=보령시 무창포해수욕장,1,2020,겨울,29347,"['여행/레저', '관광명소', '해수욕장']",보령시 무창포해수욕장,충남 보령시 웅천읍 관당리 799-1 ,36.2445217,126.5365626,6.2775
110,110,120,충남,보령시,비체팰리스,12.583493282149712,521,https://map.kakao.com/?q=보령시 비체팰리스,1,2020,겨울,5184,"['여행/레저', '숙박', '콘도/리조트']",보령시 비체팰리스,충남 보령시 웅천읍 독산리 784-1 ,36.23943970000001,126.5315457,9.405451055662187
111,111,121,충남,보령시,갱스토리,9.446460980036298,551,https://map.kakao.com/?q=보령시 갱스토리,1,2020,겨울,16462,"['생활편의', '카페', '커피전문점']",보령시 갱스토리,충남 보령시 청라면 향천리 142-5 1층,36.369405,126.6510088,8.405117967332123
112,112,122,충남,보령시,대천해수욕장스카이바이크,19.175531914893615,376,https://map.kakao.com/?q=보령시 대천해수욕장스카이바이크,1,2020,겨울,3199,"['여행/레저', '여행/레저기타', '여행/레저기타']",보령시 대천해수욕장스카이바이크,충남 보령시 신흑동 2209-4 ,36.32230379999999,126.5263893,13.933351063829784
113,113,123,충남,보령시,보령무궁화수목원,24.157894736842106,19,https://map.kakao.com/?q=보령시 보령무궁화수목원,1,2020,겨울,772,"['여행/레저', '관광명소', '관광명소기타']",보령시 보령무궁화수목원,충남 보령시 성주면 성주리 산 38-3 ,36.336305,126.6438063,19.348421052631565
114,114,124,충남,보령시,보령머드축제,19.27346938775511,245,https://map.kakao.com/?q=보령시 보령머드축제,1,2020,겨울,33823,"['여행/레저', '관광명소', '축제']",보령시 보령머드축제,충남 보령시 신흑동 2022 대천해수욕장 및 시내 일원,36.3055967,126.5160485,21.774612244897966
115,115,125,충남,보령시,오서산자연휴양림,19.010204081632647,490,https://map.kakao.com/?q=보령시 오서산자연휴양림,1,2020,겨울,9484,"['여행/레저', '관광명소', '자연휴양림']",보령시 오서산자연휴양림,충남 보령시 청라면 장현리 97 ,36.4544221,126.6728135,14.46844897959183
116,116,126,충남,보령시,보령우유창고,20.526785714285715,112,https://map.kakao.com/?q=보령시 보령우유창고,1,2020,겨울,3572,"['생활편의', '카페', '테마카페']",보령시 보령우유창고,충남 보령시 천북면 하만리 216 ,36.4879581,126.52676329999998,16.28232142857143
117,117,127,충남,보령시,원산도,22.57731958762887,97,https://map.kakao.com/?q=보령시 원산도,1,2020,겨울,19996,"['여행/레저', '관광명소', '섬']",보령시 원산도,충남 보령시 오천면 원산도리 ,36.3723853,126.3929952,28.172783505154637
118,118,128,충남,보령시,원산도해수욕장,23.453846153846154,130,https://map.kakao.com/?q=보령시 원산도해수욕장,1,2020,겨울,7504,"['여행/레저', '관광명소', '해수욕장']",보령시 원산도해수욕장,충남 보령시 오천면 원산도리 1860 ,36.3723853,126.3929952,19.88107692307692
119,119,129,충남,보령시,보령석탄박물관,21.431472081218274,197,https://map.kakao.com/?q=보령시 보령석탄박물관,1,2020,겨울,3735,"['생활편의', '문화생활시설', '박물관/기념관']",보령시 보령석탄박물관,충남 보령시 성주면 개화리 114-4 ,36.32597370000001,126.6528805,16.13959390862944
120,120,130,충남,보령시,개화예술공원,22.459016393442624,244,https://map.kakao.com/?q=보령시 개화예술공원,1,2020,겨울,11056,"['여행/레저', '관광명소', '공원']",보령시 개화예술공원,충남 보령시 성주면 개화리 183-1 ,36.312122,126.6577276,18.44
121,121,131,충남,금산군,인삼랜드휴게소하남방향,21.941340782122907,358,https://map.kakao.com/?q=금산군 인삼랜드휴게소하남방향,1,2020,겨울,4831,"['교통편의', '교통시설', '고속도로휴게소']",금산군 인삼랜드휴게소하남방향,충남 금산군 군북면 외부리 721-3 ,36.1545276,127.49715159999998,16.168603351955312
122,122,132,충남,금산군,금산세계인삼엑스포,18.854166666666668,48,https://map.kakao.com/?q=금산군 금산세계인삼엑스포,1,2020,겨울,7542,"['여행/레저', '관광명소', '축제']",금산군 금산세계인삼엑스포,충남 금산군 금산읍 신대리 361-1 ,36.0982482,127.50326640000002,22.625416666666666
123,123,133,충남,태안군,꽃지해수욕장,2.5904605263157894,608,https://map.kakao.com/?q=태안군 꽃지해수욕장,1,2020,겨울,98521,"['여행/레저', '관광명소', '해수욕장']",태안군 꽃지해수욕장,충남 태안군 안면읍 승언리 339-285 ,36.5144302,126.3529178,11.535789473684213
124,124,134,충남,태안군,만리포해수욕장,5.4457236842105265,608,https://map.kakao.com/?q=태안군 만리포해수욕장,1,2020,겨울,30258,"['여행/레저', '관광명소', '해수욕장']",태안군 만리포해수욕장,충남 태안군 소원면 모항리 1358 ,36.7685619,126.1412846,6.797993421052633
125,125,135,충남,태안군,안면도자연휴양림,9.922697368421053,608,https://map.kakao.com/?q=태안군 안면도자연휴양림,1,2020,겨울,22243,"['여행/레저', '관광명소', '자연휴양림']",태안군 안면도자연휴양림,충남 태안군 안면읍 승언리 136-1 ,36.5144302,126.3529178,9.14092105263158
126,126,136,충남,태안군,안면도,10.494661921708182,562,https://map.kakao.com/?q=태안군 안면도,1,2020,겨울,482327,"['여행/레저', '관광명소', '섬']",태안군 안면도,충남 태안군 안면읍 승언리 ,36.5144302,126.3529178,58.84024911032029
127,127,137,충남,태안군,태안빛축제,21.36764705882353,272,https://map.kakao.com/?q=태안군 태안빛축제,1,2020,겨울,23009,"['여행/레저', '관광명소', '축제']",태안군 태안빛축제,충남 태안군 남면 신온리 168-56 태안튤립축제장 내,36.6148118,126.3025459,20.032867647058822
128,128,138,충남,태안군,신진항,15.464646464646465,594,https://map.kakao.com/?q=태안군 신진항,1,2020,겨울,4153,"['교통편의', '교통시설', '항구']",태안군 신진항,충남 태안군 근흥면 신진도리 75-12 ,36.6797289,126.1421631,11.244747474747474
129,129,139,충남,태안군,천리포수목원,9.939144736842103,608,https://map.kakao.com/?q=태안군 천리포수목원,1,2020,겨울,42429,"['여행/레저', '레저/스포츠', '산림욕장']",태안군 천리포수목원,충남 태안군 소원면 의항리 868 ,36.79790070000001,126.1519171,11.144473684210524
130,130,140,충남,태안군,백사장항,13.853618421052632,608,https://map.kakao.com/?q=태안군 백사장항,1,2020,겨울,26160,"['교통편의', '교통시설', '항구']",태안군 백사장항,충남 태안군 안면읍 창기리 2200 ,36.58171160000001,126.3390389,12.279111842105262
131,131,141,충남,태안군,안면도수산시장,16.455445544554454,606,https://map.kakao.com/?q=태안군 안면도수산시장,1,2020,겨울,9927,"['쇼핑', '시장', '종합시장']",태안군 안면도수산시장,충남 태안군 안면읍 승언리 1249 ,36.51645720000001,126.346115,12.501683168316829
132,132,142,충남,태안군,몽산포해수욕장,7.583881578947367,608,https://map.kakao.com/?q=태안군 몽산포해수욕장,1,2020,겨울,19624,"['여행/레저', '관광명소', '해수욕장']",태안군 몽산포해수욕장,충남 태안군 남면 신장리 353-59 ,36.66958620000001,126.2868902,7.245296052631577
133,133,144,충남,태안군,태안신두리해안사구,18.43576388888889,576,https://map.kakao.com/?q=태안군 태안신두리해안사구,1,2020,겨울,14767,"['여행/레저', '관광명소', '관광명소기타']",태안군 태안신두리해안사구,충남 태안군 원북면 신두리 산 305-1 ,36.84681190000001,126.198705,14.443263888888893
134,134,145,충남,태안군,아일랜드리솜,12.791208791208794,182,https://map.kakao.com/?q=태안군 아일랜드리솜,1,2020,겨울,1739,"['여행/레저', '숙박', '콘도/리조트']",태안군 아일랜드리솜,충남 태안군 안면읍 중장리 765-81 ,36.48865479999999,126.337311,9.52714285714286
135,135,146,충남,태안군,트레블브레이크커피,15.85982905982906,585,https://map.kakao.com/?q=태안군 트레블브레이크커피,1,2020,겨울,2219,"['생활편의', '카페', '커피전문점']",태안군 트레블브레이크커피,충남 태안군 안면읍 창기리 260-4 ,36.58171160000001,126.3390389,11.329470085470085
136,136,147,충남,태안군,안면도백사장대하축제,18.432203389830512,236,https://map.kakao.com/?q=태안군 안면도백사장대하축제,1,2020,겨울,3459,"['여행/레저', '관광명소', '축제']",태안군 안면도백사장대하축제,충남 태안군 안면읍 창기리 2202 ,36.58171160000001,126.3390389,13.781949152542374
137,137,148,충남,태안군,태안서부시장,25.17857142857143,196,https://map.kakao.com/?q=태안군 태안서부시장,1,2020,겨울,8162,"['쇼핑', '시장', '재래시장']",태안군 태안서부시장,충남 태안군 태안읍 남문리 170-4 ,36.75321160000001,126.2964229,20.123571428571427
138,138,149,충남,태안군,모항항선착장,23.327628361858192,409,https://map.kakao.com/?q=태안군 모항항선착장,1,2020,겨울,258,"['교통편의', '교통시설', '항구']",태안군 모항항선착장,충남 태안군 소원면 모항리 ,36.7685619,126.1412846,16.36718826405868
139,139,150,충남,태안군,태안군,28.15714285714286,70,https://map.kakao.com/?q=태안군 태안군,1,2020,겨울,264527,"['AOI', '지역', '시/군/구']",태안군 태안군,충남 태안군 태안읍 평천리 698-6 ,36.7519439,126.3229392,246.44742857142865
140,140,151,충남,청양군,칠갑산휴양랜드,23.953488372093023,43,https://map.kakao.com/?q=청양군 칠갑산휴양랜드,1,2020,겨울,586,"['여행/레저', '여행/레저기타', '여행/레저기타']",청양군 칠갑산휴양랜드,충남 청양군 대치면 작천리 산 9-14 ,36.3977434,126.8525071,17.585116279069766
141,141,152,충남,계룡시,지상군페스티벌,21.125523012552303,239,https://map.kakao.com/?q=계룡시 지상군페스티벌,1,2020,겨울,8614,"['여행/레저', '관광명소', '축제']",계룡시 지상군페스티벌,충남 계룡시 신도안면 정장리 6-12 ,36.3020587,127.2377099,16.950376569037658
142,142,153,충남,홍성군,알베로241,24.58333333333333,60,https://map.kakao.com/?q=홍성군 알베로241,1,2020,겨울,278,"['생활편의', '카페', '커피전문점']",홍성군 알베로241,충남 홍성군 서부면 중리 32 ,36.572162,126.5297615,17.486333333333327
143,143,154,충남,홍성군,남당리회타운,26.324324324324326,37,https://map.kakao.com/?q=홍성군 남당리회타운,1,2020,겨울,372,"['생활편의', '음식점', '전문음식점']",홍성군 남당리회타운,충남 홍성군 서부면 남당리 160-33 ,36.5378739,126.4768736,19.030270270270268
144,144,155,충남,금산군,금산인삼국제시장,24.578947368421048,76,https://map.kakao.com/?q=금산군 금산인삼국제시장,1,2020,겨울,5028,"['쇼핑', '시장', '재래시장']",금산군 금산인삼국제시장,충남 금산군 금산읍 중도리 9-5 ,36.101793,127.497871,21.174736842105254
145,145,156,충남,부여군,서동요오픈세트장,21.73076923076923,234,https://map.kakao.com/?q=부여군 서동요오픈세트장,1,2020,겨울,537,"['여행/레저', '관광명소', '촬영지']",부여군 서동요오픈세트장,충남 부여군 충화면 가화리 281-3 ,36.144417,126.8238058,15.349230769230768
146,146,157,충남,부여군,만수산자연휴양림,22.074626865671643,134,https://map.kakao.com/?q=부여군 만수산자연휴양림,1,2020,겨울,2150,"['여행/레저', '관광명소', '자연휴양림']",부여군 만수산자연휴양림,충남 부여군 외산면 삼산리 산 40 ,36.337883700000006,126.7084626,16.414925373134327
147,147,158,충남,부여군,G340,25.153846153846153,26,https://map.kakao.com/?q=부여군 G340,1,2020,겨울,516,"['생활편의', '카페', '커피전문점']",부여군 G340,충남 부여군 부여읍 동남리 348-4 ,36.2773282,126.9172021,18.79846153846153
148,148,159,충남,계룡시,해미르아파트,27.714285714285715,7,https://map.kakao.com/?q=계룡시 해미르아파트,1,2020,겨울,602,"['그룹핑부속', '주거단지', '아파트']",계룡시 해미르아파트,충남 계룡시 신도안면 남선리 1340 ,36.298859,127.2413507,24.56
149,149,160,충남,논산시,논산딸기축제,15.478260869565215,46,https://map.kakao.com/?q=논산시 논산딸기축제,1,2020,겨울,8049,"['여행/레저', '관광명소', '축제']",논산시 논산딸기축제,충남 논산시 대교동 319 논산천 둔치,36.2103617,127.0826439,21.33347826086956
150,150,161,충남,논산시,세븐일레븐논산훈련소정문점,16.926174496644293,149,https://map.kakao.com/?q=논산시 세븐일레븐논산훈련소정문점,1,2020,겨울,52,"['쇼핑', '대형유통점', '편의점']",논산시 세븐일레븐논산훈련소정문점,충남 논산시 연무읍 금곡리 55-8 ,36.1141199,127.0978732,11.86926174496644
151,151,164,충남,서산시,큰마을영양굴밥,22.87878787878788,33,https://map.kakao.com/?q=서산시 큰마을영양굴밥,1,2020,겨울,1258,"['생활편의', '음식점', '전문음식점']",서산시 큰마을영양굴밥,충남 서산시 부석면 간월도리 89-2 ,36.6095806,126.4164659,18.302424242424248
152,152,165,충남,서산시,중앙호수공원,22.51186440677966,295,https://map.kakao.com/?q=서산시 중앙호수공원,1,2020,겨울,101916,"['여행/레저', '관광명소', '공원']",서산시 중앙호수공원,충남 서산시 읍내동 40 ,36.7752635,126.4500398,36.486983050847456
153,153,166,충남,서산시,개심사,15.55,400,https://map.kakao.com/?q=서산시 개심사,1,2020,겨울,48293,"['생활편의', '종교', '절']",서산시 개심사,충남 서산시 운산면 신창리 1 ,36.74679520000001,126.5904038,18.12895
154,154,168,충남,보령시,죽도상화원,15.281395348837213,430,https://map.kakao.com/?q=보령시 죽도상화원,1,2020,겨울,3069,"['여행/레저', '관광명소', '공원']",보령시 죽도상화원,충남 보령시 남포면 월전리 844-15 ,36.264337,126.5551846,11.125209302325585
155,155,169,충남,보령시,오천항,18.52087475149105,503,https://map.kakao.com/?q=보령시 오천항,1,2020,겨울,37921,"['교통편의', '교통시설', '항구']",보령시 오천항,충남 보령시 오천면 소성리 ,36.4381876,126.5366267,17.487992047713718
156,156,170,충남,보령시,카페리리스블루,24.1,20,https://map.kakao.com/?q=보령시 카페리리스블루,1,2020,겨울,456,"['생활편의', '카페', '커피전문점']",보령시 카페리리스블루,충남 보령시 신흑동 2017 한화리조트 대천 파로스 1층,36.3045691,126.5198815,18.238
157,157,171,충남,청양군,고운식물원,11.474747474747474,495,https://map.kakao.com/?q=청양군 고운식물원,1,2020,겨울,7180,"['여행/레저', '관광명소', '동식물원']",청양군 고운식물원,충남 청양군 청양읍 군량리 산 32-4 ,36.4337554,126.7606677,8.902626262626262
158,158,172,충남,당진시,솔뫼성지,26.10059171597633,169,https://map.kakao.com/?q=당진시 솔뫼성지,1,2020,겨울,12255,"['여행/레저', '관광명소', '문화유적지']",당진시 솔뫼성지,충남 당진시 우강면 송산리 산 45-3 ,36.8203467,126.7856528,22.621301775147924
159,159,173,충남,보령시,대천연안여객선터미널,16.847389558232933,498,https://map.kakao.com/?q=보령시 대천연안여객선터미널,1,2020,겨울,1226,"['교통편의', '교통시설', '항구']",보령시 대천연안여객선터미널,충남 보령시 신흑동 2241 ,36.3270836,126.5114131,11.940883534136546
160,160,175,충남,태안군,모켄뮤지엄카페,24.33783783783784,74,https://map.kakao.com/?q=태안군 모켄뮤지엄카페,1,2020,겨울,555,"['생활편의', '카페', '커피전문점']",태안군 모켄뮤지엄카페,충남 태안군 남면 신온리 652-264 ,36.61512620000001,126.3014989,17.486486486486484
161,161,176,충남,태안군,밀리앤코,26.0,23,https://map.kakao.com/?q=태안군 밀리앤코,1,2020,겨울,492,"['생활편의', '카페', '커피전문점']",태안군 밀리앤코,충남 태안군 태안읍 송암리 742-13 ,36.6964378,126.3225738,19.483478260869568
162,162,177,충남,태안군,멜로우데이즈,28.625,8,https://map.kakao.com/?q=태안군 멜로우데이즈,1,2020,겨울,1261,"['생활편의', '카페', '커피전문점']",태안군 멜로우데이즈,충남 태안군 고남면 고남리 617 ,36.42156,126.4115007,29.495
163,163,178,충남,태안군,나문재카페,24.15286624203822,157,https://map.kakao.com/?q=태안군 나문재카페,1,2020,겨울,1775,"['생활편의', '카페', '커피전문점']",태안군 나문재카페,충남 태안군 안면읍 창기리 209-526 ,36.58171160000001,126.3390389,17.58535031847134
164,164,180,충남,논산시,쌍계사,22.690265486725664,113,https://map.kakao.com/?q=논산시 쌍계사,1,2020,겨울,131777,"['생활편의', '종교', '절']",논산시 쌍계사,충남 논산시 양촌면 중산리 3 ,36.10559620000001,127.205769,85.85327433628319
165,165,181,충남,예산군,봉수산자연휴양림,24.84848484848485,66,https://map.kakao.com/?q=예산군 봉수산자연휴양림,1,2020,겨울,2443,"['여행/레저', '관광명소', '자연휴양림']",예산군 봉수산자연휴양림,충남 예산군 대흥면 상중리 산 11-1 ,36.5988799,126.78253,19.614848484848487
166,166,182,충남,공주시,아트센터고마,20.20833333333333,24,https://map.kakao.com/?q=공주시 아트센터고마,1,2020,겨울,1387,"['생활편의', '문화생활시설', '문화센터']",공주시 아트센터고마,충남 공주시 웅진동 347 ,36.4666145,127.1077254,17.613333333333326
167,167,183,충남,공주시,공주한옥마을,24.150943396226417,53,https://map.kakao.com/?q=공주시 공주한옥마을,1,2020,겨울,30502,"['여행/레저', '관광명소', '고택/생가/민속마을']",공주시 공주한옥마을,충남 공주시 웅진동 325-11 ,36.46296870000001,127.110205,51.436226415094346
168,168,184,충남,계룡시,무상사,29.0,2,https://map.kakao.com/?q=계룡시 무상사,1,2020,겨울,25322,"['생활편의', '종교', '절']",계룡시 무상사,충남 계룡시 엄사면 향한리 452-13 ,36.2916066,127.2122063,779.96
169,169,185,충남,예산군,꽃마름충남도청점,24.632653061224488,49,https://map.kakao.com/?q=예산군 꽃마름충남도청점,1,2020,겨울,46,"['생활편의', '음식점', '전문음식점']",예산군 꽃마름충남도청점,충남 예산군 삽교읍 목리 964 에드가프라자1차 208호,36.6645545,126.6690405,17.299183673469383
170,170,186,충남,천안시 서북구,봉서홀,20.315789473684205,19,https://map.kakao.com/?q=천안시 서북구 봉서홀,1,2020,겨울,3202,"['생활편의', '문화생활시설', '공연장']",천안시 서북구 봉서홀,충남 천안시 서북구 불당동 234-1 불당동 청사 내,36.8148232,127.1140606,24.332631578947364
171,171,187,충남,보령시,보령시,27.60655737704917,61,https://map.kakao.com/?q=보령시 보령시,1,2020,겨울,209318,"['AOI', '지역', '시/군/구']",보령시 보령시,충남 보령시 남포면 봉덕리 39-1 ,36.3243359,126.6018457,225.21114754098363
172,172,189,충남,서천군,해돋이마을,24.33333333333333,3,https://map.kakao.com/?q=서천군 해돋이마을,1,2020,겨울,2137,"['AOI', '지역', '마을']",서천군 해돋이마을,충남 서천군 서면 마량리 ,36.14096660000001,126.4973423,59.77333333333333
173,173,190,충남,서천군,성경전래지기념관,23.65573770491803,122,https://map.kakao.com/?q=서천군 성경전래지기념관,1,2020,겨울,1021,"['생활편의', '문화생활시설', '박물관/기념관']",서천군 성경전래지기념관,충남 서천군 서면 마량리 137 ,36.14096660000001,126.4973423,17.061147540983605
174,174,191,충남,아산시,영인산자연휴양림,20.316964285714285,224,https://map.kakao.com/?q=아산시 영인산자연휴양림,1,2020,겨울,5588,"['여행/레저', '관광명소', '자연휴양림']",아산시 영인산자연휴양림,충남 아산시 영인면 아산리 56-1 ,36.8505048,126.9571631,15.718660714285713
175,175,192,충남,논산시,육군훈련소체험문화공원,28.0,1,https://map.kakao.com/?q=논산시 육군훈련소체험문화공원,1,2020,겨울,738,"['여행/레저', '관광명소', '공원']",논산시 육군훈련소체험문화공원,충남 논산시 연무읍 마산리 660-13 ,36.1156391,127.098188,63.88
176,176,193,충남,부여군,높은댕이,25.35416666666667,48,https://map.kakao.com/?q=부여군 높은댕이,1,2020,겨울,264,"['생활편의', '카페', '커피전문점']",부여군 높은댕이,충남 부여군 부여읍 자왕리 360-1 ,36.3113324,126.9547044,18.077916666666667
177,177,194,충남,공주시,이안숲속,21.0,13,https://map.kakao.com/?q=공주시 이안숲속,1,2020,겨울,9313,"['여행/레저', '관광명소', '동식물원']",공주시 이안숲속,충남 공주시 반포면 마암리 648-11 ,36.4219455,127.2004007,57.683076923076925
178,178,195,충남,태안군,삼봉해수욕장,26.214285714285715,14,https://map.kakao.com/?q=태안군 삼봉해수욕장,1,2020,겨울,16539,"['여행/레저', '관광명소', '해수욕장']",태안군 삼봉해수욕장,충남 태안군 안면읍 창기리 1304-3 ,36.5700335,126.3161165,89.23142857142857
179,179,196,충남,태안군,몽산포제빵소,24.93333333333333,75,https://map.kakao.com/?q=태안군 몽산포제빵소,1,2020,겨울,656,"['생활편의', '카페', '커피전문점']",태안군 몽산포제빵소,충남 태안군 남면 몽산리 967 ,36.6869346,126.2740307,17.97813333333333
180,180,197,충남,금산군,남이자연휴양림,20.47239263803681,163,https://map.kakao.com/?q=금산군 남이자연휴양림,1,2020,겨울,10432,"['여행/레저', '관광명소', '자연휴양림']",금산군 남이자연휴양림,충남 금산군 남이면 건천리 산 166 ,36.0510939,127.3859977,18.170674846625765
181,181,198,충남,보령시,성주산자연휴양림,19.76900584795321,342,https://map.kakao.com/?q=보령시 성주산자연휴양림,1,2020,겨울,7893,"['여행/레저', '관광명소', '자연휴양림']",보령시 성주산자연휴양림,충남 보령시 성주면 성주리 산 39 ,36.3368122,126.6555164,15.22304093567251
182,182,199,충남,보령시,보령중앙시장,26.177777777777766,90,https://map.kakao.com/?q=보령시 보령중앙시장,1,2020,겨울,1405,"['쇼핑', '시장', '시장기타']",보령시 보령중앙시장,충남 보령시 대천동 335-24 ,36.3506054,126.5928024,19.261111111111106
183,183,200,충남,계룡시,계룡문화예술의전당,22.447115384615387,208,https://map.kakao.com/?q=계룡시 계룡문화예술의전당,1,2020,겨울,1638,"['생활편의', '문화생활시설', '공연장']",계룡시 계룡문화예술의전당,충남 계룡시 엄사면 유동리 457 ,36.27356760000001,127.23633329999998,16.185480769230768
184,184,201,충남,태안군,연포해수욕장,23.25821596244132,213,https://map.kakao.com/?q=태안군 연포해수욕장,1,2020,겨울,7890,"['여행/레저', '관광명소', '해수욕장']",태안군 연포해수욕장,충남 태안군 근흥면 도황리 ,36.69530510000001,126.20204270000002,18.503286384976526
185,185,202,충남,논산시,논산시,28.2,15,https://map.kakao.com/?q=논산시 논산시,1,2020,겨울,220212,"['AOI', '지역', '시/군/구']",논산시 논산시,충남 논산시 관촉동 381-1 ,36.19623929999999,127.1038426,900.5880000000003
186,186,203,충남,보령시,보령문화의전당,24.88888888888889,27,https://map.kakao.com/?q=보령시 보령문화의전당,1,2020,겨울,5625,"['생활편의', '문화생활시설', '문화생활시설기타']",보령시 보령문화의전당,충남 보령시 대천동 340-2 ,36.3501783,126.5913496,29.92222222222221
187,187,204,충남,서산시,서산버드랜드,23.05,60,https://map.kakao.com/?q=서산시 서산버드랜드,1,2020,겨울,6104,"['여행/레저', '관광명소', '관광명소기타']",서산시 서산버드랜드,충남 서산시 부석면 창리 5-1 ,36.64105720000001,126.3803184,22.239
188,188,206,충남,천안시 동남구,눈들재,21.30769230769231,13,https://map.kakao.com/?q=천안시 동남구 눈들재,1,2020,겨울,1675,"['생활편의', '카페', '커피전문점']",천안시 동남구 눈들재,충남 천안시 동남구 용곡동 220 1층,36.7889332,127.1352988,22.64615384615385
189,189,207,충남,천안시 서북구,한들문화센터수영장,22.0,2,https://map.kakao.com/?q=천안시 서북구 한들문화센터수영장,1,2020,겨울,635,"['여행/레저', '레저/스포츠', '수영장']",천안시 서북구 한들문화센터수영장,충남 천안시 서북구 백석동 591 ,36.8279979,127.1045344,34.45
190,190,208,충남,천안시 서북구,한들문화센터,24.607142857142854,28,https://map.kakao.com/?q=천안시 서북구 한들문화센터,1,2020,겨울,8678,"['생활편의', '문화생활시설', '문화센터']",천안시 서북구 한들문화센터,충남 천안시 서북구 백석동 591 ,36.8279979,127.1045344,35.82071428571429
191,191,209,충남,논산시,마음수련논산메인센터,23.809523809523807,21,https://map.kakao.com/?q=논산시 마음수련논산메인센터,1,2020,겨울,137,"['여행/레저', '레저/스포츠', '레저/스포츠기타']",논산시 마음수련논산메인센터,충남 논산시 상월면 상도리 407-14 ,36.3223973,127.18146670000002,17.058095238095234
192,192,210,충남,태안군,영목항,24.77011494252873,87,https://map.kakao.com/?q=태안군 영목항,1,2020,겨울,18442,"['교통편의', '교통시설', '항구']",태안군 영목항,충남 태안군 고남면 고남리 ,36.4247482,126.4143765,30.057701149425288
193,193,211,충남,금산군,태고사,24.4,120,https://map.kakao.com/?q=금산군 태고사,1,2020,겨울,22484,"['생활편의', '종교', '절']",금산군 태고사,충남 금산군 진산면 행정리 512-1 ,36.1345535,127.3251966,28.322
194,194,212,충남,부여군,국립부여박물관사비마루,29.0,2,https://map.kakao.com/?q=부여군 국립부여박물관사비마루,1,2020,겨울,886,"['생활편의', '문화생활시설', '박물관/기념관']",부여군 국립부여박물관사비마루,충남 부여군 부여읍 동남리 34-2 ,36.2765474,126.9173676,46.88
195,195,213,충남,보령시,대천가자조개구이,9.0,1,https://map.kakao.com/?q=보령시 대천가자조개구이,1,2020,겨울,3567,"['생활편의', '음식점', '전문음식점']",보령시 대천가자조개구이,충남 보령시 신흑동 2272-10 ,36.32230379999999,126.5263893,220.32
196,196,214,충남,태안군,방포수산,26.38333333333333,60,https://map.kakao.com/?q=태안군 방포수산,1,2020,겨울,3847,"['생활편의', '음식점', '전문음식점']",태안군 방포수산,충남 태안군 안면읍 승언리 1317-19 ,36.5042362,126.3351719,22.31533333333333
197,197,215,충남,천안시 동남구,천안예술의전당,16.525714285714287,175,https://map.kakao.com/?q=천안시 동남구 천안예술의전당,1,2020,겨울,9033,"['생활편의', '문화생활시설', '공연장']",천안시 동남구 천안예술의전당,충남 천안시 동남구 성남면 용원리 710 ,36.7561693,127.2263711,14.665028571428573
198,198,216,충남,서산시,간월도,24.42857142857143,35,https://map.kakao.com/?q=서산시 간월도,1,2020,겨울,38310,"['여행/레저', '관광명소', '섬']",서산시 간월도,충남 서산시 부석면 간월도리 544 ,36.618232,126.4220169,82.77428571428571
199,199,217,충남,당진시,카페로우,26.65517241379311,29,https://map.kakao.com/?q=당진시 카페로우,1,2020,겨울,65306,"['생활편의', '카페', '커피전문점']",당진시 카페로우,충남 당진시 수청동 2-1 ,36.87763070000001,126.6644023,153.77448275862068
200,200,218,충남,공주시,롱디커피,22.483146067415728,89,https://map.kakao.com/?q=공주시 롱디커피,1,2020,겨울,2689,"['생활편의', '카페', '커피전문점']",공주시 롱디커피,충남 공주시 석장리동 22-24 ,36.4563723,127.1901018,17.551011235955052
201,201,219,충남,공주시,연미산자연미술공원,19.90909090909091,33,https://map.kakao.com/?q=공주시 연미산자연미술공원,1,2020,겨울,2064,"['여행/레저', '관광명소', '공원']",공주시 연미산자연미술공원,충남 공주시 우성면 신웅리 산 26-8 ,36.4734819,127.1025324,17.689090909090904
202,202,221,충남,계룡시,조방낙지계룡점,26.5,10,https://map.kakao.com/?q=계룡시 조방낙지계룡점,1,2020,겨울,8,"['생활편의', '음식점', '전문음식점']",계룡시 조방낙지계룡점,충남 계룡시 금암동 162-5 ,36.2730944,127.252119,18.597999999999995
203,203,222,충남,청양군,청양고추문화마을,24.5,10,https://map.kakao.com/?q=청양군 청양고추문화마을,1,2020,겨울,6932,"['여행/레저', '관광명소', '고택/생가/민속마을']",청양군 청양고추문화마을,충남 청양군 청양읍 군량리 208-1 ,36.4392247,126.7797377,58.742
204,204,223,충남,공주시,장승마을빛축제,25.3125,16,https://map.kakao.com/?q=공주시 장승마을빛축제,1,2020,겨울,1420,"['여행/레저', '관광명소', '축제']",공주시 장승마을빛축제,충남 공주시 사곡면 운암리 511 ,36.5572098,127.0219092,23.04375
205,205,224,충남,당진시,장고항실치축제,11.712328767123287,146,https://map.kakao.com/?q=당진시 장고항실치축제,1,2020,겨울,2745,"['여행/레저', '관광명소', '축제']",당진시 장고항실치축제,충남 당진시 석문면 장고항리 615-5 ,37.0305655,126.5598965,9.326712328767123
206,206,225,충남,서산시,스타벅스서산호수점,27.42857142857143,7,https://map.kakao.com/?q=서산시 스타벅스서산호수점,1,2020,겨울,46,"['생활편의', '카페', '커피전문점']",서산시 스타벅스서산호수점,충남 서산시 읍내동 38-5 1~2층,36.7757917,126.4495744,19.594285714285714
207,207,226,충남,보령시,무창포신비의바닷길축제,21.719298245614038,57,https://map.kakao.com/?q=보령시 무창포신비의바닷길축제,1,2020,겨울,6791,"['여행/레저', '관광명소', '축제']",보령시 무창포신비의바닷길축제,충남 보령시 웅천읍 관당리 888-57 무창포해수욕장 일대,36.2450766,126.536437,22.351929824561406
208,208,227,충남,태안군,굴향,30.0,1,https://map.kakao.com/?q=태안군 굴향,1,2020,겨울,11347,"['생활편의', '카페', '커피전문점']",태안군 굴향,충남 태안군 태안읍 남문리 722-6 ,36.7440646,126.3021495,701.82
209,209,228,충남,태안군,네이처월드,21.879310344827584,58,https://map.kakao.com/?q=태안군 네이처월드,1,2020,겨울,16463,"['여행/레저', '관광명소', '관광명소기타']",태안군 네이처월드,충남 태안군 남면 신온리 168-3 ,36.6148118,126.3025459,32.34620689655172
210,210,229,충남,보령시,무창포신비의바닷길대하전어축제,16.87741935483871,155,https://map.kakao.com/?q=보령시 무창포신비의바닷길대하전어축제,1,2020,겨울,2624,"['여행/레저', '관광명소', '축제']",보령시 무창포신비의바닷길대하전어축제,충남 보령시 웅천읍 관당리 888-57 무창포해수욕장 일대,36.2450766,126.536437,12.829935483870967
211,211,230,충남,금산군,추부농공단지,29.0,4,https://map.kakao.com/?q=금산군 추부농공단지,1,2020,겨울,613,"['기업/단체', '산업시설', '농공단지']",금산군 추부농공단지,충남 금산군 추부면 신평리 1002 ,36.2213338,127.5074035,29.495
212,212,231,충남,논산시,챌린지팜,21.857142857142854,21,https://map.kakao.com/?q=논산시 챌린지팜,1,2020,겨울,3604,"['여행/레저', '레저/스포츠', '놀이시설']",논산시 챌린지팜,충남 논산시 연무읍 신화리 60 ,36.12846079999999,127.0785764,25.597142857142853
213,213,232,충남,금산군,칠백의총,24.905263157894737,95,https://map.kakao.com/?q=금산군 칠백의총,1,2020,겨울,7015,"['여행/레저', '관광명소', '문화유적지']",금산군 칠백의총,충남 금산군 금성면 의총리 216 ,36.131415,127.4926139,21.86421052631579
214,214,234,충남,계룡시,구룡콘도,25.393939393939394,33,https://map.kakao.com/?q=계룡시 구룡콘도,1,2020,겨울,1647,"['여행/레저', '숙박', '콘도/리조트']",계룡시 구룡콘도,충남 계룡시 신도안면 석계리 472-1 ,36.3241331,127.23030359999998,20.770303030303033
215,215,235,충남,청양군,천장호,22.62962962962963,108,https://map.kakao.com/?q=청양군 천장호,1,2020,겨울,16749,"['여행/레저', '관광명소', '호수']",청양군 천장호,충남 청양군 정산면 천장리 ,36.4102322,126.903613,25.145740740740735
216,216,236,충남,청양군,지은,24.038461538461537,26,https://map.kakao.com/?q=청양군 지은,1,2020,겨울,3642859,"['생활편의', '카페', '커피전문점']",청양군 지은,충남 청양군 남양면 봉암리 150-13 ,36.4128506,126.7831886,8423.424615384616
217,217,237,충남,논산시,돈페논산점,29.0,1,https://map.kakao.com/?q=논산시 돈페논산점,1,2020,겨울,17,"['생활편의', '음식점', '전문음식점']",논산시 돈페논산점,충남 논산시 내동 1207 2층,36.1818553,127.10063,21.32
218,218,239,충남,금산군,금산군실내테니스장,22.5,2,https://map.kakao.com/?q=금산군 금산군실내테니스장,1,2020,겨울,84,"['여행/레저', '레저/스포츠', '테니스']",금산군 금산군실내테니스장,충남 금산군 금산읍 하옥리 94 ,36.0819554,127.4899084,18.27
219,219,240,충남,예산군,카페이앙,26.91666666666667,12,https://map.kakao.com/?q=예산군 카페이앙,1,2020,겨울,1865,"['생활편의', '카페', '커피전문점']",예산군 카페이앙,충남 예산군 응봉면 후사리 118-4 ,36.63653060000001,126.7993444,28.16666666666667
220,220,241,충남,논산시,관촉사,24.09701492537313,134,https://map.kakao.com/?q=논산시 관촉사,1,2020,겨울,16762,"['생활편의', '종교', '절']",논산시 관촉사,충남 논산시 관촉동 254 ,36.1882846,127.1131223,24.373283582089552
221,221,242,충남,공주시,계룡산자연사박물관,24.113636363636363,44,https://map.kakao.com/?q=공주시 계룡산자연사박물관,1,2020,겨울,2894,"['생활편의', '문화생활시설', '박물관/기념관']",공주시 계룡산자연사박물관,충남 공주시 반포면 학봉리 511-1 ,36.3663906,127.2463408,20.82590909090909
222,222,243,충남,공주시,석장리박물관,22.344537815126053,119,https://map.kakao.com/?q=공주시 석장리박물관,1,2020,겨울,8352,"['생활편의', '문화생활시설', '박물관/기념관']",공주시 석장리박물관,충남 공주시 석장리동 137-3 ,36.4563723,127.1901018,19.852268907563023
223,223,244,충남,논산시,양촌곶감축제,10.375,8,https://map.kakao.com/?q=논산시 양촌곶감축제,1,2020,겨울,1528,"['여행/레저', '관광명소', '축제']",논산시 양촌곶감축제,충남 논산시 양촌면 양촌리 454-1 ,36.1300804,127.2464211,18.7225
224,224,245,충남,서천군,용왕조개타운,26.54545454545455,11,https://map.kakao.com/?q=서천군 용왕조개타운,1,2020,겨울,270,"['생활편의', '음식점', '전문음식점']",서천군 용왕조개타운,충남 서천군 비인면 선도리 397 ,36.1268398,126.5937772,20.05454545454546
225,225,246,충남,공주시,계룡산국립공원동학사지구,22.892307692307693,65,https://map.kakao.com/?q=공주시 계룡산국립공원동학사지구,1,2020,겨울,1160,"['여행/레저', '관광명소', '국/도립공원']",공주시 계룡산국립공원동학사지구,충남 공주시 반포면 학봉리 777 ,36.3566829,127.2325192,17.095384615384614
226,226,247,충남,청양군,춘소커피,24.63636363636364,22,https://map.kakao.com/?q=청양군 춘소커피,1,2020,겨울,157,"['생활편의', '카페', '커피전문점']",청양군 춘소커피,충남 청양군 남양면 구룡리 59-13 ,36.3994144,126.7765356,17.673636363636362
227,227,248,충남,서천군,엣지펜션풍차민박,25.0,1,https://map.kakao.com/?q=서천군 엣지펜션풍차민박,1,2020,겨울,9,"['여행/레저', '숙박', '민박']",서천군 엣지펜션풍차민박,충남 서천군 비인면 선도리 93-3 ,36.1350699,126.5821083,18.04
228,228,249,충남,공주시,애터미본사,22.857142857142854,7,https://map.kakao.com/?q=공주시 애터미본사,1,2020,겨울,2785,"['쇼핑', '가방/액세서리', '화장품']",공주시 애터미본사,충남 공주시 웅진동 242-14 ,36.4555142,127.110617,39.87142857142858
229,229,250,충남,천안시 동남구,밥상차려주는집,28.33333333333333,3,https://map.kakao.com/?q=천안시 동남구 밥상차려주는집,1,2020,겨울,89292,"['생활편의', '카페', '커피전문점']",천안시 동남구 밥상차려주는집,충남 천안시 동남구 구룡동 573-6 ,36.7729189,127.13905990000002,1805.6733333333327
230,230,251,충남,금산군,금산지구별그림책마을,25.57142857142857,21,https://map.kakao.com/?q=금산군 금산지구별그림책마을,1,2020,겨울,841,"['생활편의', '문화생활시설', '문화생활시설기타']",금산군 금산지구별그림책마을,충남 금산군 진산면 지방리 174-1 ,36.1750873,127.35747659999998,20.302857142857142
231,231,252,충남,태안군,일송꽃게장백반,29.0,2,https://map.kakao.com/?q=태안군 일송꽃게장백반,1,2020,겨울,1068,"['생활편의', '음식점', '전문음식점']",태안군 일송꽃게장백반,충남 태안군 안면읍 승언리 755-5 ,36.5326119,126.3495435,52.34
232,232,253,충남,금산군,산꽃벚꽃마을오토캠핑장,20.97297297297297,111,https://map.kakao.com/?q=금산군 산꽃벚꽃마을오토캠핑장,1,2020,겨울,5364,"['여행/레저', '레저/스포츠', '캠프장']",금산군 산꽃벚꽃마을오토캠핑장,충남 금산군 군북면 산안리 302 ,36.1953438,127.5663217,17.580540540540536
233,233,254,충남,금산군,티내다,27.0,2,https://map.kakao.com/?q=금산군 티내다,1,2020,겨울,327,"['생활편의', '카페', '커피전문점']",금산군 티내다,충남 금산군 금산읍 상리 26-25 ,36.1082795,127.4886876,28.71
234,234,255,충남,논산시,선샤인스튜디오,22.55,100,https://map.kakao.com/?q=논산시 선샤인스튜디오,1,2020,겨울,9192,"['여행/레저', '관광명소', '촬영지']",논산시 선샤인스튜디오,충남 논산시 연무읍 황화정리 859-55 ,36.1026238,127.102236,21.3002
235,235,256,충남,천안시 동남구,각원사,17.458333333333332,48,https://map.kakao.com/?q=천안시 동남구 각원사,1,2020,겨울,13723,"['생활편의', '종교', '절']",천안시 동남구 각원사,충남 천안시 동남구 안서동 171-3 ,36.8342011,127.1968302,29.37458333333333
236,236,257,충남,천안시 동남구,애슐리퀸즈천안터미널점,23.5,2,https://map.kakao.com/?q=천안시 동남구 애슐리퀸즈천안터미널점,1,2020,겨울,126,"['생활편의', '음식점', '패밀리레스토랑']",천안시 동남구 애슐리퀸즈천안터미널점,충남 천안시 동남구 신부동 97-3 아라리오 갤러리 1층,36.819414,127.1578102,20.23
237,237,258,충남,서천군,산에바다에펜션,24.105263157894736,38,https://map.kakao.com/?q=서천군 산에바다에펜션,1,2020,겨울,142899,"['여행/레저', '숙박', '펜션']",서천군 산에바다에펜션,충남 서천군 서면 도둔리 1254 ,36.1652804,126.5254957,242.5036842105263
238,238,259,충남,청양군,비봉농공단지,24.33333333333333,3,https://map.kakao.com/?q=청양군 비봉농공단지,1,2020,겨울,292,"['기업/단체', '산업시설', '농공단지']",청양군 비봉농공단지,충남 청양군 비봉면 방한리 99 ,36.47233189999999,126.7519029,22.87333333333333
239,239,260,충남,태안군,몽산포오션캠핑장,21.273333333333333,150,https://map.kakao.com/?q=태안군 몽산포오션캠핑장,1,2020,겨울,1977,"['여행/레저', '레저/스포츠', '캠프장']",태안군 몽산포오션캠핑장,충남 태안군 남면 신장리 433-4 ,36.670012,126.2917488,15.682133333333333
240,240,262,충남,계룡시,감나무집,28.0,4,https://map.kakao.com/?q=계룡시 감나무집,1,2020,겨울,26461,"['생활편의', '음식점', '전문음식점']",계룡시 감나무집,충남 계룡시 엄사면 엄사리 60-2 ,36.28995220000001,127.2462272,416.515
241,241,263,충남,논산시,오늘은힐카페,26.2,5,https://map.kakao.com/?q=논산시 오늘은힐카페,1,2020,겨울,38232,"['생활편의', '카페', '커피전문점']",논산시 오늘은힐카페,충남 논산시 취암동 398-4 ,36.1968612,127.09283870000002,477.124
242,242,264,충남,홍성군,광천전통시장,25.44578313253012,83,https://map.kakao.com/?q=홍성군 광천전통시장,1,2020,겨울,2721,"['쇼핑', '시장', '재래시장']",홍성군 광천전통시장,충남 홍성군 광천읍 광천리 195-16 ,36.5016681,126.6252684,19.77903614457832
243,243,265,충남,금산군,이슬공원,24.0,9,https://map.kakao.com/?q=금산군 이슬공원,1,2020,겨울,83342,"['여행/레저', '관광명소', '공원']",금산군 이슬공원,충남 금산군 금성면 양전리 380-1 ,36.1144746,127.4804432,572.4133333333333
244,244,266,충남,천안시 동남구,중앙시장,27.0,2,https://map.kakao.com/?q=천안시 동남구 중앙시장,1,2020,겨울,2514187,"['쇼핑', '시장', '시장기타']",천안시 동남구 중앙시장,충남 천안시 동남구 사직동 35-1 ,36.8029374,127.1498114,75444.51
245,245,267,충남,태안군,안면도국제꽃박람회,17.7,60,https://map.kakao.com/?q=태안군 안면도국제꽃박람회,1,2020,겨울,9573,"['여행/레저', '여행/레저기타', '여행/레저기타']",태안군 안면도국제꽃박람회,충남 태안군 안면읍 승언리 산 29-122 ,36.5015638,126.3362529,21.963
246,246,268,충남,태안군,안면암,25.785714285714285,14,https://map.kakao.com/?q=태안군 안면암,1,2020,겨울,16606,"['생활편의', '종교', '절']",태안군 안면암,충남 태안군 안면읍 정당리 178-7 ,36.5593414,126.3749999,89.21857142857144
247,247,269,충남,계룡시,더하고부대찌개,26.66666666666667,3,https://map.kakao.com/?q=계룡시 더하고부대찌개,1,2020,겨울,2292,"['생활편의', '음식점', '전문음식점']",계룡시 더하고부대찌개,충남 계룡시 금암동 15-4 ,36.27492279999999,127.2564068,64.50666666666667
248,248,270,충북,충주시,한화리조트수안보,14.25,472,https://map.kakao.com/?q=충주시 한화리조트수안보,1,2020,겨울,5803,"['여행/레저', '숙박', '콘도/리조트']",충주시 한화리조트수안보,충북 충주시 수안보면 온천리 748-2 ,36.8495313,127.98540020000002,10.712669491525423
249,249,271,충북,충주시,수안보온천랜드,12.276292335115864,561,https://map.kakao.com/?q=충주시 수안보온천랜드,1,2020,겨울,3963,"['여행/레저', '관광명소', '온천']",충주시 수안보온천랜드,충북 충주시 수안보면 온천리 291-1 ,36.8468948,127.9889967,9.017254901960783
250,250,272,충북,충주시,켄싱턴리조트충주,23.51818181818182,220,https://map.kakao.com/?q=충주시 켄싱턴리조트충주,1,2020,겨울,3335,"['여행/레저', '숙박', '콘도/리조트']",충주시 켄싱턴리조트충주,충북 충주시 앙성면 돈산리 155-1 ,37.1017412,127.7960305,17.372272727272726
251,251,273,충북,충주시,커피단월,24.410958904109588,146,https://map.kakao.com/?q=충주시 커피단월,1,2020,겨울,1569,"['생활편의', '카페', '커피전문점']",충주시 커피단월,충북 충주시 단월동 130-13 ,36.94244880000001,127.9121522,17.732465753424655
252,252,274,충북,제천시,청풍호반케이블카,3.2287822878228782,542,https://map.kakao.com/?q=제천시 청풍호반케이블카,1,2020,겨울,4439,"['여행/레저', '관광명소', '관광명소기타']",제천시 청풍호반케이블카,충북 제천시 청풍면 물태리 98-2 ,36.9948653,128.1673014,2.7515498154981546
253,253,275,충북,제천시,리솜포레스트,10.98684210526316,608,https://map.kakao.com/?q=제천시 리솜포레스트,1,2020,겨울,18509,"['여행/레저', '숙박', '콘도/리조트']",제천시 리솜포레스트,충북 제천시 백운면 평동리 707 ,37.1493922,128.0376193,9.517335526315787
254,254,276,충북,제천시,배론성지,17.357019064124785,577,https://map.kakao.com/?q=제천시 배론성지,1,2020,겨울,12525,"['여행/레저', '관광명소', '문화유적지']",제천시 배론성지,충북 제천시 봉양읍 구학리 674 ,37.1605097,128.0825218,13.452339688041597
255,255,277,충북,제천시,제천중앙시장,15.092105263157894,608,https://map.kakao.com/?q=제천시 제천중앙시장,1,2020,겨울,32208,"['쇼핑', '시장', '재래시장']",제천시 제천중앙시장,충북 제천시 중앙로1가 77 ,37.136624,128.2113501,13.742894736842105
256,256,278,충북,제천시,스타벅스제천DT점,24.20138888888889,288,https://map.kakao.com/?q=제천시 스타벅스제천DT점,1,2020,겨울,95,"['생활편의', '카페', '커피전문점']",제천시 스타벅스제천DT점,충북 제천시 중앙로2가 68-3 ,37.1436691,128.2128533,16.960763888888884
257,257,279,충북,제천시,제천얼음축제,14.159090909090908,44,https://map.kakao.com/?q=제천시 제천얼음축제,1,2020,겨울,4609,"['여행/레저', '관광명소', '축제']",제천시 제천얼음축제,충북 제천시 모산동 241 ,37.173097,128.21056869999998,16.196363636363635
258,258,280,충북,옥천군,까페호반풍경,7.078610603290676,547,https://map.kakao.com/?q=옥천군 까페호반풍경,1,2020,겨울,951,"['생활편의', '카페', '커피전문점']",옥천군 까페호반풍경,충북 옥천군 군북면 소정리 17-3 ,36.3688764,127.612221,5.059341864716637
259,259,281,충북,옥천군,금강휴게소,5.1729818780889625,607,https://map.kakao.com/?q=옥천군 금강휴게소,1,2020,겨울,21438,"['교통편의', '교통시설', '고속도로휴게소']",옥천군 금강휴게소,충북 옥천군 동이면 조령리 576 ,36.2789676,127.6720376,5.740164744645799
260,260,282,충북,옥천군,금강유원지,18.94857142857143,350,https://map.kakao.com/?q=옥천군 금강유원지,1,2020,겨울,18112,"['여행/레저', '관광명소', '유원지']",옥천군 금강유원지,충북 옥천군 동이면 우산리 ,36.2712258,127.6797693,16.368914285714286
261,261,283,충북,옥천군,장령산자연휴양림,11.117753623188408,552,https://map.kakao.com/?q=옥천군 장령산자연휴양림,1,2020,겨울,2363,"['여행/레저', '관광명소', '자연휴양림']",옥천군 장령산자연휴양림,충북 옥천군 군서면 금산리 산 15-1 ,36.232468,127.5625848,8.039275362318842
262,262,284,충북,옥천군,프란스테이션,23.564516129032263,62,https://map.kakao.com/?q=옥천군 프란스테이션,1,2020,겨울,266,"['생활편의', '카페', '커피전문점']",옥천군 프란스테이션,충북 옥천군 군북면 소정리 45-6 ,36.3612578,127.6033423,16.752580645161295
263,263,285,충북,옥천군,소정,22.684684684684683,111,https://map.kakao.com/?q=옥천군 소정,1,2020,겨울,2196062,"['생활편의', '카페', '커피전문점']",옥천군 소정,충북 옥천군 군북면 소정리 220 ,36.3586668,127.5993107,1202.9398198198198
264,264,286,충북,옥천군,뿌리깊은나무,21.21140939597316,298,https://map.kakao.com/?q=옥천군 뿌리깊은나무,1,2020,겨울,104203,"['생활편의', '음식점', '전문음식점']",옥천군 뿌리깊은나무,충북 옥천군 안내면 장계리 293-3 ,36.3593044,127.632226,35.828456375838925
265,265,287,충북,옥천군,용암사,21.90909090909091,22,https://map.kakao.com/?q=옥천군 용암사,1,2020,겨울,20483,"['생활편의', '종교', '절']",옥천군 용암사,충북 옥천군 옥천읍 삼청리 산 51-4 ,36.259418,127.5639013,71.19909090909091
266,266,288,충북,청주시 상당구,청남대,3.0690789473684217,608,https://map.kakao.com/?q=청주시 상당구 청남대,1,2020,겨울,68423,"['여행/레저', '관광명소', '관광명소기타']",청주시 상당구 청남대,충북 청주시 상당구 문의면 신대리 산 25-2 ,36.4612029,127.4885521,8.900625
267,267,289,충북,청주시 상당구,더대청호카페,18.609112709832136,417,https://map.kakao.com/?q=청주시 상당구 더대청호카페,1,2020,겨울,8485,"['생활편의', '카페', '커피전문점']",청주시 상당구 더대청호카페,충북 청주시 상당구 문의면 문산리 20-8 ,36.5113445,127.4994553,14.247242206235011
268,268,290,충북,청주시 상당구,청주시,24.4125,320,https://map.kakao.com/?q=청주시 상당구 청주시,1,2020,겨울,842680,"['AOI', '지역', '시/군/구']",청주시 상당구 청주시,충북 청주시 상당구 월오동 1 ,36.6457753,127.5494356,175.09124999999997
269,269,291,충북,청주시 상당구,대청댐전망대,15.021428571428574,560,https://map.kakao.com/?q=청주시 상당구 대청댐전망대,1,2020,겨울,8968,"['여행/레저', '관광명소', '전망대']",청주시 상당구 대청댐전망대,충북 청주시 상당구 문의면 덕유리 629-12 ,36.6510445,127.4870295,11.475857142857144
270,270,292,충북,청주시 서원구,그로우빈커피,15.607142857142858,112,https://map.kakao.com/?q=청주시 서원구 그로우빈커피,1,2020,겨울,251,"['생활편의', '카페', '커피전문점']",청주시 서원구 그로우빈커피,충북 청주시 서원구 죽림동 98 ,36.6102595,127.4505916,11.059464285714283
271,271,293,충북,청주시 흥덕구,하이닉스문화센터,23.342592592592588,108,https://map.kakao.com/?q=청주시 흥덕구 하이닉스문화센터,1,2020,겨울,9886,"['생활편의', '문화생활시설', '문화센터']",청주시 흥덕구 하이닉스문화센터,충북 청주시 흥덕구 향정동 125 ,36.6497251,127.4246458,21.832037037037033
272,272,294,충북,영동군,영동곶감축제,11.777777777777779,18,https://map.kakao.com/?q=영동군 영동곶감축제,1,2020,겨울,4173,"['여행/레저', '관광명소', '축제']",영동군 영동곶감축제,충북 영동군 영동읍 부용리 379 난계국악당 주차장 일원,36.1755311,127.7712897,22.15444444444445
273,273,295,충북,영동군,영국사,11.146010186757216,589,https://map.kakao.com/?q=영동군 영국사,1,2020,겨울,27441,"['생활편의', '종교', '절']",영동군 영국사,충북 영동군 양산면 누교리 1397 ,36.15810700000001,127.610484,10.597555178268252
274,274,296,충북,영동군,영동군,21.828282828282827,297,https://map.kakao.com/?q=영동군 영동군,1,2020,겨울,142880,"['AOI', '지역', '시/군/구']",영동군 영동군,충북 영동군 영동읍 매천리 444-1 ,36.1684685,127.7759821,44.14444444444445
275,275,297,충북,영동군,황간휴게소부산방향,19.045454545454547,44,https://map.kakao.com/?q=영동군 황간휴게소부산방향,1,2020,겨울,866,"['교통편의', '교통시설', '고속도로휴게소']",영동군 황간휴게소부산방향,충북 영동군 황간면 회포리 114 ,36.2493319,127.8531533,14.512727272727275
276,276,298,충북,영동군,노근리평화공원,18.24087591240876,411,https://map.kakao.com/?q=영동군 노근리평화공원,1,2020,겨울,2980,"['여행/레저', '관광명소', '공원']",영동군 노근리평화공원,충북 영동군 황간면 노근리 ,36.2134303,127.8834519,13.203649635036495
277,277,299,충북,영동군,물한계곡,10.509369676320274,587,https://map.kakao.com/?q=영동군 물한계곡,1,2020,겨울,18081,"['여행/레저', '관광명소', '폭포/계곡']",영동군 물한계곡,충북 영동군 상촌면 물한리 ,36.059221,127.8743293,9.204701873935264
278,278,300,충북,영동군,선희식당,19.46981627296588,381,https://map.kakao.com/?q=영동군 선희식당,1,2020,겨울,5050,"['생활편의', '카페', '커피전문점']",영동군 선희식당,충북 영동군 양산면 가선리 110-3 ,36.1246316,127.6009144,14.424146981627295
279,279,301,충북,영동군,송호국민관광지,14.620202020202019,495,https://map.kakao.com/?q=영동군 송호국민관광지,1,2020,겨울,4311,"['여행/레저', '관광명소', '관광단지']",영동군 송호국민관광지,충북 영동군 양산면 송호리 278-14 ,36.1293249,127.676983,10.756686868686867
280,280,302,충북,영동군,영동와인터널,20.625748502994014,334,https://map.kakao.com/?q=영동군 영동와인터널,1,2020,겨울,4245,"['여행/레저', '관광명소', '관광명소기타']",영동군 영동와인터널,충북 영동군 영동읍 매천리 163-1 ,36.1612274,127.7841875,15.200598802395213
281,281,303,충북,증평군,좌구산자연휴양림,3.3503289473684217,608,https://map.kakao.com/?q=증평군 좌구산자연휴양림,1,2020,겨울,1759,"['여행/레저', '관광명소', '자연휴양림']",증평군 좌구산자연휴양림,충북 증평군 증평읍 율리 산 61-1 ,36.7054168,127.6511754,2.5188157894736842
282,282,304,충북,증평군,블랙스톤벨포레리조트,11.88539741219963,541,https://map.kakao.com/?q=증평군 블랙스톤벨포레리조트,1,2020,겨울,570,"['여행/레저', '숙박', '콘도/리조트']",증평군 블랙스톤벨포레리조트,충북 증평군 도안면 연촌리 산 40 ,36.8485872,127.58865729999998,8.382994454713494
283,283,305,충북,증평군,좌구산천문대,20.13671875,256,https://map.kakao.com/?q=증평군 좌구산천문대,1,2020,겨울,2652,"['여행/레저', '관광명소', '관광명소기타']",증평군 좌구산천문대,충북 증평군 증평읍 율리 산 61-1 ,36.7054168,127.6511754,14.717265624999998
284,284,306,충북,증평군,이와카페,13.170212765957446,282,https://map.kakao.com/?q=증평군 이와카페,1,2020,겨울,360309,"['생활편의', '카페', '커피전문점']",증평군 이와카페,충북 증평군 증평읍 초중리 266 ,36.7679588,127.5805137,85.88063829787234
285,285,308,충북,증평군,블랙스톤벨포레리조트익스트림루지,13.674740484429064,289,https://map.kakao.com/?q=증평군 블랙스톤벨포레리조트익스트림루지,1,2020,겨울,509,"['여행/레저', '레저/스포츠', '레저/스포츠기타']",증평군 블랙스톤벨포레리조트익스트림루지,충북 증평군 도안면 연촌리 산 40 ,36.8485872,127.58865729999998,9.677993079584773
286,286,309,충북,증평군,좌구산썰매장,16.058139534883722,86,https://map.kakao.com/?q=증평군 좌구산썰매장,1,2020,겨울,370,"['여행/레저', '레저/스포츠', '눈썰매장']",증평군 좌구산썰매장,충북 증평군 증평읍 율리 308-3 ,36.7119573,127.651645,11.498837209302328
287,287,310,충북,보은군,법주사,2.9144736842105265,608,https://map.kakao.com/?q=보은군 법주사,1,2020,겨울,97146,"['생활편의', '종교', '절']",보은군 법주사,충북 보은군 속리산면 사내리 209 ,36.5483402,127.84411,11.62690789473684
288,288,311,충북,보은군,속리산말티재자연휴양림,11.87542662116041,586,https://map.kakao.com/?q=보은군 속리산말티재자연휴양림,1,2020,겨울,2784,"['여행/레저', '관광명소', '자연휴양림']",보은군 속리산말티재자연휴양림,충북 보은군 장안면 장재리 산 5-1 ,36.4908883,127.7829362,8.597849829351535
289,289,312,충북,보은군,속리산국립공원법주사지구,11.32565789473684,608,https://map.kakao.com/?q=보은군 속리산국립공원법주사지구,1,2020,겨울,14,"['여행/레저', '관광명소', '국/도립공원']",보은군 속리산국립공원법주사지구,충북 보은군 속리산면 사내리 ,36.5483402,127.84411,7.929342105263156
290,290,313,충북,보은군,속리산휴게소청주방향,21.359743040685228,467,https://map.kakao.com/?q=보은군 속리산휴게소청주방향,1,2020,겨울,2757,"['교통편의', '교통시설', '고속도로휴게소']",보은군 속리산휴게소청주방향,충북 보은군 마로면 적암리 181-3 ,36.4477634,127.8690848,15.306038543897214
291,291,314,충북,보은군,충북알프스자연휴양림,20.180094786729857,211,https://map.kakao.com/?q=보은군 충북알프스자연휴양림,1,2020,겨울,3829,"['여행/레저', '관광명소', '자연휴양림']",보은군 충북알프스자연휴양림,충북 보은군 산외면 장갑리 산 15 ,36.5695476,127.7894769,15.214881516587674
292,292,315,충북,보은군,속리산숲체험휴양마을,17.09285714285714,280,https://map.kakao.com/?q=보은군 속리산숲체험휴양마을,1,2020,겨울,25998,"['여행/레저', '관광명소', '자연휴양림']",보은군 속리산숲체험휴양마을,충북 보은군 속리산면 갈목리 산 19-3 ,36.4944029,127.7998479,17.535999999999998
293,293,316,충북,보은군,보은대추축제,16.31316725978648,281,https://map.kakao.com/?q=보은군 보은대추축제,1,2020,겨울,7069,"['여행/레저', '관광명소', '축제']",보은군 보은대추축제,충북 보은군 보은읍 이평리 125 뱃들공원,36.48631829999999,127.7231777,12.928612099644127
294,294,317,충북,영동군,영동국악체험촌,19.84,25,https://map.kakao.com/?q=영동군 영동국악체험촌,1,2020,겨울,1873,"['생활편의', '문화생활시설', '공연장']",영동군 영동국악체험촌,충북 영동군 심천면 고당리 505 ,36.2140961,127.6984986,18.3832
295,295,318,충북,영동군,민주지산자연휴양림,20.346341463414635,410,https://map.kakao.com/?q=영동군 민주지산자연휴양림,1,2020,겨울,2387,"['여행/레저', '관광명소', '자연휴양림']",영동군 민주지산자연휴양림,충북 영동군 용화면 조동리 산 4-129 ,36.0520361,127.8356876,14.591756097560976
296,296,319,충북,증평군,스타벅스충북증평점,20.29773462783172,309,https://map.kakao.com/?q=증평군 스타벅스충북증평점,1,2020,겨울,30,"['생활편의', '카페', '커피전문점']",증평군 스타벅스충북증평점,충북 증평군 증평읍 송산리 738 ,36.803473,127.5763313,14.214239482200648
297,297,320,충북,단양군,소노문단양,1.3273026315789471,608,https://map.kakao.com/?q=단양군 소노문단양,1,2020,겨울,1404,"['여행/레저', '숙박', '콘도/리조트']",단양군 소노문단양,충북 단양군 단양읍 상진리 4-1 ,36.9776625,128.3622929,1.0676644736842102
298,298,321,충북,단양군,만천하스카이워크,2.5608552631578947,608,https://map.kakao.com/?q=단양군 만천하스카이워크,1,2020,겨울,12421,"['여행/레저', '관광명소', '전망대']",단양군 만천하스카이워크,충북 단양군 적성면 애곡리 94 ,36.9770829,128.3369439,3.0183552631578947
299,299,322,충북,단양군,카페산,2.2268602540834848,551,https://map.kakao.com/?q=단양군 카페산,1,2020,겨울,13178,"['생활편의', '카페', '커피전문점']",단양군 카페산,충북 단양군 가곡면 사평리 246-33 ,36.9945286,128.3944959,2.9937931034482763
300,300,323,충북,단양군,단양구경시장,5.848684210526316,608,https://map.kakao.com/?q=단양군 단양구경시장,1,2020,겨울,31013,"['쇼핑', '시장', '재래시장']",단양군 단양구경시장,충북 단양군 단양읍 도전리 615 ,36.982472,128.3698933,7.154572368421053
301,301,324,충북,단양군,도담삼봉,5.067434210526316,608,https://map.kakao.com/?q=단양군 도담삼봉,1,2020,겨울,15439,"['여행/레저', '관광명소', '관광명소기타']",단양군 도담삼봉,충북 단양군 매포읍 하괴리 산 20-40 ,37.0039261,128.3399332,5.0707894736842105
302,302,325,충북,단양군,고수동굴,7.082236842105262,608,https://map.kakao.com/?q=단양군 고수동굴,1,2020,겨울,37348,"['여행/레저', '관광명소', '동굴']",단양군 고수동굴,충북 단양군 단양읍 고수리 185 ,36.9844889,128.3744514,8.643223684210525
303,303,326,충북,단양군,다누리아쿠아리움,15.204225352112674,568,https://map.kakao.com/?q=단양군 다누리아쿠아리움,1,2020,겨울,7981,"['여행/레저', '관광명소', '수족관']",단양군 다누리아쿠아리움,충북 단양군 단양읍 별곡리 569 ,36.985817,128.3707666,11.486021126760562
304,304,327,충북,단양군,수양개빛터널,15.198970840480275,583,https://map.kakao.com/?q=단양군 수양개빛터널,1,2020,겨울,1358,"['여행/레저', '관광명소', '관광명소기타']",단양군 수양개빛터널,충북 단양군 적성면 애곡리 산 24-19 ,36.9595232,128.3317066,10.779039451114922
305,305,328,충북,단양군,구인사,14.240527182866554,607,https://map.kakao.com/?q=단양군 구인사,1,2020,겨울,42803,"['생활편의', '종교', '절']",단양군 구인사,충북 단양군 영춘면 백자리 132-1 ,37.03222279999999,128.4805528,14.199308072487641
306,306,329,충북,단양군,소백산국립공원천동지구,21.41212121212121,165,https://map.kakao.com/?q=단양군 소백산국립공원천동지구,1,2020,겨울,513,"['여행/레저', '관광명소', '국/도립공원']",단양군 소백산국립공원천동지구,충북 단양군 단양읍 천동리 201 ,36.9731031,128.41731869999998,15.1750303030303
307,307,330,충북,단양군,온달관광지,14.833616298811545,589,https://map.kakao.com/?q=단양군 온달관광지,1,2020,겨울,17071,"['여행/레저', '관광명소', '관광단지']",단양군 온달관광지,충북 단양군 영춘면 하리 147 ,37.06261129999999,128.4926074,12.122512733446515
308,308,331,충북,단양군,충주호유람선장회나루선착장,13.123102866779089,593,https://map.kakao.com/?q=단양군 충주호유람선장회나루선착장,1,2020,겨울,559,"['교통편의', '교통시설', '항구']",단양군 충주호유람선장회나루선착장,충북 단양군 단성면 장회리 90-3 ,36.931211,128.2539542,9.24273187183811
309,309,332,충북,단양군,단양군,22.677506775067748,369,https://map.kakao.com/?q=단양군 단양군,1,2020,겨울,175350,"['AOI', '지역', '시/군/구']",단양군 단양군,충북 단양군 단양읍 상진리 84 ,36.9822134,128.3502493,44.386449864498644
310,310,334,충북,단양군,사인암,14.349917081260363,603,https://map.kakao.com/?q=단양군 사인암,1,2020,겨울,33616,"['여행/레저', '관광명소', '관광명소기타']",단양군 사인암,충북 단양군 대강면 사인암리 산 27 ,36.8943884,128.3403949,13.3898175787728
311,311,336,충북,단양군,단양팔경,24.756684491978607,374,https://map.kakao.com/?q=단양군 단양팔경,1,2020,겨울,50928,"['여행/레저', '관광명소', '관광명소기타']",단양군 단양팔경,충북 단양군 대강면 사인암리 산 27 ,36.8943884,128.3403949,25.499946524064175
312,312,337,충북,단양군,장다리식당,21.70135746606336,442,https://map.kakao.com/?q=단양군 장다리식당,1,2020,겨울,3526,"['생활편의', '카페', '커피전문점']",단양군 장다리식당,충북 단양군 단양읍 별곡리 28-1 ,36.9895146,128.368121,15.669592760181
313,313,338,충북,진천군,진천선수촌,10.246031746031745,378,https://map.kakao.com/?q=진천군 진천선수촌,1,2020,겨울,8285,"['여행/레저', '레저/스포츠', '레저/스포츠기타']",진천군 진천선수촌,충북 진천군 광혜원면 회죽리 732 ,36.9708924,127.4278383,8.487301587301586
314,314,339,충북,진천군,진천농다리,11.740303541315345,593,https://map.kakao.com/?q=진천군 진천농다리,1,2020,겨울,19093,"['여행/레저', '관광명소', '문화유적지']",진천군 진천농다리,충북 진천군 문백면 구곡리 601-32 ,36.8286135,127.4946879,10.150050590219225
315,315,340,충북,제천시,제천청풍호벚꽃축제,17.212435233160626,386,https://map.kakao.com/?q=제천시 제천청풍호벚꽃축제,1,2020,겨울,5617,"['여행/레저', '관광명소', '축제']",제천시 제천청풍호벚꽃축제,충북 제천시 청풍면 물태리 산 6-48 청풍호 일원,37.004636,128.1708049,12.921813471502592
316,316,341,충북,제천시,해브나인힐링스파,23.661764705882355,68,https://map.kakao.com/?q=제천시 해브나인힐링스파,1,2020,겨울,4061,"['여행/레저', '관광명소', '온천']",제천시 해브나인힐링스파,충북 제천시 백운면 평동리 707 ,37.1493922,128.0376193,20.14647058823529
317,317,342,충북,제천시,박달재자연휴양림,24.399103139013448,223,https://map.kakao.com/?q=제천시 박달재자연휴양림,1,2020,겨울,2828,"['여행/레저', '관광명소', '자연휴양림']",제천시 박달재자연휴양림,충북 제천시 백운면 평동리 산 71 ,37.149731,128.0488748,17.84026905829596
318,318,344,충북,청주시 상당구,상당산성,17.18762886597938,485,https://map.kakao.com/?q=청주시 상당구 상당산성,1,2020,겨울,80285,"['여행/레저', '관광명소', '성']",청주시 상당구 상당산성,충북 청주시 상당구 산성동 산 28-2 ,36.6651471,127.5331628,21.963505154639172
319,319,345,충북,청주시 상당구,풀문,20.22191011235955,356,https://map.kakao.com/?q=청주시 상당구 풀문,1,2020,겨울,36145,"['생활편의', '카페', '커피전문점']",청주시 상당구 풀문,충북 청주시 상당구 수동 81-194 ,36.6462932,127.4947665,20.24719101123595
320,320,346,충북,청주시 상당구,청주랜드어린이체험관,22.4,65,https://map.kakao.com/?q=청주시 상당구 청주랜드어린이체험관,1,2020,겨울,1167,"['생활편의', '문화생활시설', '문화생활시설기타']",청주시 상당구 청주랜드어린이체험관,충북 청주시 상당구 명암동 70 ,36.6520221,127.5193507,16.757230769230766
321,321,347,충북,청주시 상당구,육거리종합시장,23.752808988764052,267,https://map.kakao.com/?q=청주시 상당구 육거리종합시장,1,2020,겨울,3147,"['쇼핑', '시장', '종합시장']",청주시 상당구 육거리종합시장,충북 청주시 상당구 석교동 126-38 ,36.6280968,127.4900707,17.334157303370787
322,322,348,충북,진천군,생거진천전통시장,20.426710097719873,307,https://map.kakao.com/?q=진천군 생거진천전통시장,1,2020,겨울,831,"['쇼핑', '시장', '재래시장']",진천군 생거진천전통시장,충북 진천군 진천읍 성석리 969 지하주차장 입구,36.8646422,127.4529428,14.46110749185668
323,323,349,충북,청주시 서원구,청주예술의전당,13.78450363196126,413,https://map.kakao.com/?q=청주시 서원구 청주예술의전당,1,2020,겨울,30158,"['생활편의', '문화생활시설', '공연장']",청주시 서원구 청주예술의전당,충북 청주시 서원구 사직동 755 ,36.6418645,127.4700427,14.030460048426152
324,324,350,충북,제천시,청풍문화재단지,17.683266932270918,502,https://map.kakao.com/?q=제천시 청풍문화재단지,1,2020,겨울,24580,"['여행/레저', '관광명소', '관광단지']",제천시 청풍문화재단지,충북 제천시 청풍면 물태리 104-7 ,37.0047389,128.1707456,15.31613545816733
325,325,351,충북,제천시,청풍호관광모노레일,12.72463768115942,483,https://map.kakao.com/?q=제천시 청풍호관광모노레일,1,2020,겨울,4675,"['여행/레저', '여행/레저기타', '여행/레저기타']",제천시 청풍호관광모노레일,충북 제천시 청풍면 도곡리 99 ,37.0031396,128.1339804,9.4879917184265
326,326,352,충북,제천시,제천시,25.385365853658534,205,https://map.kakao.com/?q=제천시 제천시,1,2020,겨울,299486,"['AOI', '지역', '시/군/구']",제천시 제천시,충북 제천시 청전동 110 ,37.149082,128.2159946,105.4241951219512
327,327,353,충북,제천시,청풍리조트힐하우스,24.463414634146343,123,https://map.kakao.com/?q=제천시 청풍리조트힐하우스,1,2020,겨울,554,"['여행/레저', '숙박', '콘도/리조트']",제천시 청풍리조트힐하우스,충북 제천시 청풍면 교리 33 ,37.0197182,128.1796956,17.394634146341463
328,328,354,충북,청주시 청원구,오창호수공원,2.4029605263157894,608,https://map.kakao.com/?q=청주시 청원구 오창호수공원,1,2020,겨울,27884,"['여행/레저', '관광명소', '공원']",청주시 청원구 오창호수공원,충북 청주시 청원구 오창읍 양청리 753 ,36.7142185,127.4245179,4.433782894736842
329,329,355,충북,청주시 청원구,초정약수세종스파텔,20.658620689655173,290,https://map.kakao.com/?q=청주시 청원구 초정약수세종스파텔,1,2020,겨울,571,"['여행/레저', '관광명소', '온천']",청주시 청원구 초정약수세종스파텔,충북 청주시 청원구 내수읍 초정리 334-24 ,36.7190011,127.5992372,14.579172413793106
330,330,356,충북,청주시 청원구,초정약수원탕,24.487179487179485,117,https://map.kakao.com/?q=청주시 청원구 초정약수원탕,1,2020,겨울,879,"['생활편의', '생활서비스', '세탁소']",청주시 청원구 초정약수원탕,충북 청주시 청원구 내수읍 초정리 107-3 ,36.7203411,127.6003553,17.59179487179487
331,331,357,충북,청주시 청원구,국립현대미술관청주관,20.977272727272727,176,https://map.kakao.com/?q=청주시 청원구 국립현대미술관청주관,1,2020,겨울,1833,"['생활편의', '문화생활시설', '미술관']",청주시 청원구 국립현대미술관청주관,충북 청주시 청원구 내덕동 201-1 ,36.6554335,127.4901913,15.30897727272727
332,332,358,충북,청주시 청원구,챔피언1250원더아리아청주점,25.235294117647058,17,https://map.kakao.com/?q=청주시 청원구 챔피언1250원더아리아청주점,1,2020,겨울,91,"['여행/레저', '레저/스포츠', '놀이시설']",청주시 청원구 챔피언1250원더아리아청주점,충북 청주시 청원구 내덕동 201-31 5층,36.6557027,127.4907533,17.98588235294118
333,333,359,충북,영동군,송호국민관광지캠핑장,17.570093457943926,321,https://map.kakao.com/?q=영동군 송호국민관광지캠핑장,1,2020,겨울,1678,"['여행/레저', '레저/스포츠', '캠프장']",영동군 송호국민관광지캠핑장,충북 영동군 양산면 송호리 281 ,36.13103570000001,127.6770449,12.612710280373832
334,334,360,충북,영동군,양산팔경금강둘레길,22.35374149659864,147,https://map.kakao.com/?q=영동군 양산팔경금강둘레길,1,2020,겨울,1077,"['여행/레저', '여행/레저기타', '여행/레저기타']",영동군 양산팔경금강둘레길,충북 영동군 양산면 봉곡리 ,36.1351719,127.6853516,16.08721088435374
335,335,361,충북,증평군,좌구산명상구름다리,19.24264705882353,272,https://map.kakao.com/?q=증평군 좌구산명상구름다리,1,2020,겨울,739,"['여행/레저', '여행/레저기타', '여행/레저기타']",증평군 좌구산명상구름다리,충북 증평군 증평읍 율리 ,36.7161285,127.6435339,13.632867647058823
336,336,362,충북,보은군,삼년산성,22.88586956521739,184,https://map.kakao.com/?q=보은군 삼년산성,1,2020,겨울,8908,"['여행/레저', '관광명소', '성']",보은군 삼년산성,충북 보은군 보은읍 어암리 산 1-1 ,36.4883234,127.7438494,18.924891304347824
337,337,363,충북,보은군,속리산국립공원,21.69583333333333,240,https://map.kakao.com/?q=보은군 속리산국립공원,1,2020,겨울,27104,"['여행/레저', '관광명소', '국/도립공원']",보은군 속리산국립공원,충북 보은군 속리산면 사내리 ,36.5483402,127.84411,21.96308333333333
338,338,364,충북,청주시 서원구,청주온천스파피아,25.10810810810811,37,https://map.kakao.com/?q=청주시 서원구 청주온천스파피아,1,2020,겨울,124,"['여행/레저', '관광명소', '온천']",청주시 서원구 청주온천스파피아,충북 청주시 서원구 분평동 343-23 ,36.6097331,127.4792814,17.776756756756754
339,339,365,충북,청주시 상당구,미동산수목원,20.75,164,https://map.kakao.com/?q=청주시 상당구 미동산수목원,1,2020,겨울,8115,"['여행/레저', '관광명소', '자연휴양림']",청주시 상당구 미동산수목원,충북 청주시 상당구 미원면 미원리 20 ,36.6316738,127.654564,17.493902439024392
340,340,366,충북,청주시 상당구,청주랜드,24.6,25,https://map.kakao.com/?q=청주시 상당구 청주랜드,1,2020,겨울,56932,"['여행/레저', '레저/스포츠', '놀이시설']",청주시 상당구 청주랜드,충북 청주시 상당구 명암동 70 ,36.6520221,127.5193507,153.85680000000005
341,341,367,충북,영동군,과일나라테마공원,22.12844036697248,109,https://map.kakao.com/?q=영동군 과일나라테마공원,1,2020,겨울,13302,"['여행/레저', '관광명소', '관광명소기타']",영동군 과일나라테마공원,충북 영동군 영동읍 매천리 34 ,36.16094920000001,127.7925552,22.812110091743122
342,342,368,충북,충주시,중앙탑공원,19.474387527839642,449,https://map.kakao.com/?q=충주시 중앙탑공원,1,2020,겨울,14308,"['여행/레저', '관광명소', '공원']",충주시 중앙탑공원,충북 충주시 중앙탑면 탑평리 11 ,37.0158358,127.8666155,15.544053452115813
343,343,369,충북,충주시,탄금대공원,24.78395061728395,162,https://map.kakao.com/?q=충주시 탄금대공원,1,2020,겨울,14701,"['여행/레저', '관광명소', '공원']",충주시 탄금대공원,충북 충주시 칠금동 산 1-1 ,36.9870966,127.89914640000002,22.79358024691357
344,344,370,충북,충주시,충주라이트월드,21.46323529411765,136,https://map.kakao.com/?q=충주시 충주라이트월드,1,2020,겨울,3422,"['여행/레저', '관광명소', '관광명소기타']",충주시 충주라이트월드,충북 충주시 금릉동 601 ,36.9889211,127.9052967,16.533970588235295
345,345,371,충북,단양군,가연,25.51515151515152,99,https://map.kakao.com/?q=단양군 가연,1,2020,겨울,101604,"['생활편의', '카페', '커피전문점']",단양군 가연,충북 단양군 단양읍 상진리 567 ,36.9791558,128.35329950000002,79.43878787878786
346,346,372,충북,단양군,단양사계절썰매장,24.857142857142854,14,https://map.kakao.com/?q=단양군 단양사계절썰매장,1,2020,겨울,407,"['여행/레저', '레저/스포츠', '레저/스포츠기타']",단양군 단양사계절썰매장,충북 단양군 단양읍 별곡리 산 21-6 ,36.9875338,128.3569274,19.144285714285708
347,347,373,충북,단양군,카페다우리,24.51612903225807,31,https://map.kakao.com/?q=단양군 카페다우리,1,2020,겨울,3968,"['생활편의', '카페', '커피전문점']",단양군 카페다우리,충북 단양군 대강면 방곡리 367-1 ,36.8288644,128.30951480000002,24.841290322580647
348,348,374,충북,충주시,충주호,19.84375,352,https://map.kakao.com/?q=충주시 충주호,1,2020,겨울,123393,"['여행/레저', '관광명소', '호수']",충주시 충주호,충북 충주시 동량면 사기리 ,36.9795218,128.0846859,34.92352272727273
349,349,375,충북,충주시,충주탄금호국제조정경기장,21.8,45,https://map.kakao.com/?q=충주시 충주탄금호국제조정경기장,1,2020,겨울,7155,"['여행/레저', '레저/스포츠', '수상해양스포츠']",충주시 충주탄금호국제조정경기장,충북 충주시 중앙탑면 탑평리 137 ,37.02171420000001,127.8643575,24.8
350,350,376,충북,괴산군,산막이옛길,1.28125,608,https://map.kakao.com/?q=괴산군 산막이옛길,1,2020,겨울,55753,"['여행/레저', '관광명소', '관광명소기타']",괴산군 산막이옛길,충북 괴산군 칠성면 사은리 536-1 ,36.7357961,127.8566438,6.398815789473684
351,351,377,충북,괴산군,괴산휴게소마산방향,20.84437086092716,302,https://map.kakao.com/?q=괴산군 괴산휴게소마산방향,1,2020,겨울,1058,"['교통편의', '교통시설', '고속도로휴게소']",괴산군 괴산휴게소마산방향,충북 괴산군 장연면 오가리 103-2 ,36.8313847,127.95749340000002,14.8012582781457
352,352,378,충북,괴산군,괴산산막이시장,17.810126582278485,237,https://map.kakao.com/?q=괴산군 괴산산막이시장,1,2020,겨울,2389,"['쇼핑', '시장', '시장기타']",괴산군 괴산산막이시장,충북 괴산군 괴산읍 동부리 549-6 ,36.81106079999999,127.7941356,13.071898734177216
353,353,379,충북,단양군,소선암자연휴양림,22.93125,160,https://map.kakao.com/?q=단양군 소선암자연휴양림,1,2020,겨울,2478,"['여행/레저', '관광명소', '자연휴양림']",단양군 소선암자연휴양림,충북 단양군 단성면 대잠리 산 63 ,36.91941660000001,128.3107984,16.981125
354,354,380,충북,괴산군,괴산자연드림파크1단지,21.25,216,https://map.kakao.com/?q=괴산군 괴산자연드림파크1단지,1,2020,겨울,149,"['여행/레저', '관광명소', '관광명소기타']",괴산군 괴산자연드림파크1단지,충북 괴산군 칠성면 율원리 68-1 ,36.7669774,127.8614504,14.916388888888884
355,355,381,충북,괴산군,화양구곡,7.879790940766551,574,https://map.kakao.com/?q=괴산군 화양구곡,1,2020,겨울,27160,"['여행/레저', '관광명소', '폭포/계곡']",괴산군 화양구곡,충북 괴산군 청천면 화양리 ,36.66414,127.8212914,8.354878048780488
356,356,382,충북,괴산군,괴산휴게소양평방향,23.11926605504588,109,https://map.kakao.com/?q=괴산군 괴산휴게소양평방향,1,2020,겨울,1202,"['교통편의', '교통시설', '고속도로휴게소']",괴산군 괴산휴게소양평방향,충북 괴산군 장연면 오가리 293-2 ,36.8322912,127.9600299,16.845137614678904
357,357,383,충북,괴산군,조령산자연휴양림,19.07792207792208,308,https://map.kakao.com/?q=괴산군 조령산자연휴양림,1,2020,겨울,5482,"['여행/레저', '관광명소', '자연휴양림']",괴산군 조령산자연휴양림,충북 괴산군 연풍면 원풍리 산 1-1 ,36.81209570000001,128.0470655,14.422467532467532
358,358,384,충북,음성군,백야자연휴양림,21.47560975609756,164,https://map.kakao.com/?q=음성군 백야자연휴양림,1,2020,겨울,1327,"['여행/레저', '관광명소', '자연휴양림']",음성군 백야자연휴양림,충북 음성군 금왕읍 백야리 144-2 ,36.9569582,127.6092465,15.51841463414634
359,359,386,충북,괴산군,공림사,18.126074498567334,349,https://map.kakao.com/?q=괴산군 공림사,1,2020,겨울,6167,"['생활편의', '종교', '절']",괴산군 공림사,충북 괴산군 청천면 사담리 11 ,36.6318163,127.8166426,13.748481375358164
360,360,387,충북,괴산군,각연사,16.748847926267278,434,https://map.kakao.com/?q=괴산군 각연사,1,2020,겨울,6604,"['생활편의', '종교', '절']",괴산군 각연사,충북 괴산군 칠성면 태성리 39-1 ,36.75902070000001,127.9230271,12.637188940092162
361,361,388,충북,영동군,옥계폭포,15.761044176706829,498,https://map.kakao.com/?q=영동군 옥계폭포,1,2020,겨울,17726,"['여행/레저', '관광명소', '폭포/계곡']",영동군 옥계폭포,충북 영동군 심천면 고당리 산 75-1 ,36.2125131,127.672304,13.16839357429719
362,362,389,충북,영동군,반야사,21.527220630372486,349,https://map.kakao.com/?q=영동군 반야사,1,2020,겨울,18348,"['생활편의', '종교', '절']",영동군 반야사,충북 영동군 황간면 우매리 산 3 ,36.280187700000006,127.9093147,18.223438395415467
363,363,390,충북,증평군,카페율리,23.383561643835613,73,https://map.kakao.com/?q=증평군 카페율리,1,2020,겨울,6442,"['생활편의', '카페', '커피전문점']",증평군 카페율리,충북 증평군 증평읍 율리 512-1 ,36.7168273,127.63741,21.663287671232872
364,364,391,충북,증평군,커피안뜰,22.802197802197803,91,https://map.kakao.com/?q=증평군 커피안뜰,1,2020,겨울,8614,"['생활편의', '카페', '커피전문점']",증평군 커피안뜰,충북 증평군 증평읍 초중리 488-1 나동 1층,36.7784278,127.5669112,21.6410989010989
365,365,392,충북,충주시,무학시장,25.486486486486488,37,https://map.kakao.com/?q=충주시 무학시장,1,2020,겨울,25040,"['쇼핑', '시장', '재래시장']",충주시 무학시장,충북 충주시 봉방동 4-85 ,36.9739277,127.9272652,58.44594594594595
366,366,393,충북,단양군,다리안국민관광지,19.957928802588995,309,https://map.kakao.com/?q=단양군 다리안국민관광지,1,2020,겨울,1886,"['여행/레저', '관광명소', '관광단지']",단양군 다리안국민관광지,충북 단양군 단양읍 천동리 365-2 ,36.96528989999999,128.4209326,14.336763754045306
367,367,394,충북,증평군,증평민속체험박물관,19.1,10,https://map.kakao.com/?q=증평군 증평민속체험박물관,1,2020,겨울,1535,"['생활편의', '문화생활시설', '박물관/기념관']",증평군 증평민속체험박물관,충북 증평군 증평읍 남하리 91 ,36.7639436,127.5954976,22.58
368,368,395,충북,옥천군,국민연금공단옥천지사,25.0,5,https://map.kakao.com/?q=옥천군 국민연금공단옥천지사,1,2020,겨울,28884,"['금융편의', '제2금융', '연금']",옥천군 국민연금공단옥천지사,충북 옥천군 옥천읍 장야리 288 4층,36.2966884,127.5760668,364.108
369,369,396,충북,옥천군,옥천휴게소부산방향,25.37142857142857,35,https://map.kakao.com/?q=옥천군 옥천휴게소부산방향,1,2020,겨울,2519,"['교통편의', '교통시설', '고속도로휴게소']",옥천군 옥천휴게소부산방향,충북 옥천군 옥천읍 매화리 251-4 ,36.2968674,127.5952102,22.078285714285716
370,370,397,충북,괴산군,괴산발효식품농공단지,22.966666666666665,30,https://map.kakao.com/?q=괴산군 괴산발효식품농공단지,1,2020,겨울,476,"['기업/단체', '산업시설', '농공단지']",괴산군 괴산발효식품농공단지,충북 괴산군 괴산읍 능촌리 633 ,36.8400247,127.823725,17.028666666666666
371,371,398,충북,진천군,보탑사,24.040650406504067,123,https://map.kakao.com/?q=진천군 보탑사,1,2020,겨울,16094,"['여행/레저', '관광명소', '문화유적지']",진천군 보탑사,충북 진천군 진천읍 연곡리 483 ,36.8397967,127.3409364,24.679186991869926
372,372,399,충북,음성군,꽃마름충북혁신도시점,26.538461538461537,13,https://map.kakao.com/?q=음성군 꽃마름충북혁신도시점,1,2020,겨울,25,"['생활편의', '음식점', '전문음식점']",음성군 꽃마름충북혁신도시점,충북 음성군 맹동면 두성리 1491 광장빌딩 2층 203호,36.9107945,127.5550715,18.69230769230769
373,373,400,충북,제천시,제천한방엑스포공원,22.15730337078652,89,https://map.kakao.com/?q=제천시 제천한방엑스포공원,1,2020,겨울,2290,"['여행/레저', '관광명소', '공원']",제천시 제천한방엑스포공원,충북 제천시 왕암동 660 ,37.1431993,128.1603772,17.053932584269663
374,374,401,충북,괴산군,문무레스텔,24.83333333333333,6,https://map.kakao.com/?q=괴산군 문무레스텔,1,2020,겨울,6,"['생활편의', '문화생활시설', '문화생활시설기타']",괴산군 문무레스텔,충북 괴산군 괴산읍 서부리 901 ,36.8220754,127.7833909,17.443333333333328
375,375,402,충북,괴산군,성불산자연휴양림,21.957446808510642,188,https://map.kakao.com/?q=괴산군 성불산자연휴양림,1,2020,겨울,2193,"['여행/레저', '관광명소', '자연휴양림']",괴산군 성불산자연휴양림,충북 괴산군 괴산읍 검승리 263-1 ,36.807843,127.84621,16.070106382978725
376,376,403,충북,옥천군,옥천휴게소서울방향,22.0,8,https://map.kakao.com/?q=옥천군 옥천휴게소서울방향,1,2020,겨울,3093,"['교통편의', '교통시설', '고속도로휴게소']",옥천군 옥천휴게소서울방향,충북 옥천군 옥천읍 매화리 43-11 ,36.2978175,127.59927140000002,38.5975
377,377,404,충북,단양군,단양소백산철쭉제,17.34065934065934,91,https://map.kakao.com/?q=단양군 단양소백산철쭉제,1,2020,겨울,5770,"['여행/레저', '관광명소', '축제']",단양군 단양소백산철쭉제,"충북 단양군 단양읍 별곡리 300 남한강변, 소백산 일원",36.9848383,128.3655699,15.942857142857141
378,378,406,충북,음성군,금왕사우나,26.75,4,https://map.kakao.com/?q=음성군 금왕사우나,1,2020,겨울,735,"['생활편의', '생활서비스', '세탁소']",음성군 금왕사우나,충북 음성군 금왕읍 본대리 135-7 ,36.9774505,127.53427109999998,29.75
379,379,407,충북,단양군,온달산성,20.428571428571427,7,https://map.kakao.com/?q=단양군 온달산성,1,2020,겨울,18622,"['여행/레저', '관광명소', '문화유적지']",단양군 온달산성,충북 단양군 영춘면 하리 산 67 ,37.0575864,128.4849954,173.91714285714284
380,380,408,충북,단양군,천동동굴,26.272727272727273,11,https://map.kakao.com/?q=단양군 천동동굴,1,2020,겨울,7792,"['여행/레저', '관광명소', '동굴']",단양군 천동동굴,충북 단양군 단양읍 천동리 산 17-1 ,36.9706714,128.4227817,60.89272727272728
381,381,409,충북,단양군,황정산자연휴양림,25.77586206896552,116,https://map.kakao.com/?q=단양군 황정산자연휴양림,1,2020,겨울,4350,"['여행/레저', '관광명소', '자연휴양림']",단양군 황정산자연휴양림,충북 단양군 대강면 올산리 산 74-1 ,36.8412875,128.3497368,20.293103448275854
382,382,410,충북,보은군,달본106,27.777777777777786,9,https://map.kakao.com/?q=보은군 달본106,1,2020,겨울,195,"['생활편의', '카페', '커피전문점']",보은군 달본106,충북 보은군 보은읍 삼산리 106-1 ,36.482412,127.7166736,20.74444444444445
383,383,411,충북,진천군,진천군,28.555555555555557,9,https://map.kakao.com/?q=진천군 진천군,1,2020,겨울,155649,"['AOI', '지역', '시/군/구']",진천군 진천군,충북 진천군 이월면 중산리 3-53 ,36.8908386,127.4440594,1057.648888888889
384,384,412,충북,음성군,미타사,21.0,4,https://map.kakao.com/?q=음성군 미타사,1,2020,겨울,13411,"['생활편의', '종교', '절']",음성군 미타사,충북 음성군 소이면 비산리 874-2 ,36.9552664,127.73035120000002,215.865
385,385,413,충북,괴산군,카페청안,18.504201680672267,119,https://map.kakao.com/?q=괴산군 카페청안,1,2020,겨울,2496,"['생활편의', '카페', '커피전문점']",괴산군 카페청안,충북 괴산군 청안면 금신리 174 ,36.7682493,127.6373708,14.21142857142857
386,386,414,충북,진천군,생거진천농다리축제,22.30337078651685,89,https://map.kakao.com/?q=진천군 생거진천농다리축제,1,2020,겨울,1350,"['여행/레저', '관광명소', '축제']",진천군 생거진천농다리축제,"충북 진천군 문백면 구곡리 601-32 농다리, 미르숲 일원",36.8275089,127.4962153,16.52247191011236
387,387,415,충북,괴산군,정인지묘,25.2,5,https://map.kakao.com/?q=괴산군 정인지묘,1,2020,겨울,4942,"['여행/레저', '관광명소', '문화유적지']",괴산군 정인지묘,충북 괴산군 불정면 외령리 산 44 ,36.9262594,127.8214119,76.944
388,388,417,충북,영동군,황간휴게소서울방향,21.33333333333333,15,https://map.kakao.com/?q=영동군 황간휴게소서울방향,1,2020,겨울,1141,"['교통편의', '교통시설', '고속도로휴게소']",영동군 황간휴게소서울방향,충북 영동군 황간면 회포리 137 ,36.24966679999999,127.8550999,19.497333333333327
389,389,418,충북,제천시,대보명가본점,26.522222222222233,90,https://map.kakao.com/?q=제천시 대보명가본점,1,2020,겨울,305,"['생활편의', '카페', '커피전문점']",제천시 대보명가본점,충북 제천시 신월동 201 ,37.1511564,128.1885192,18.768888888888885
390,390,419,충북,청주시 상당구,문의문화재단지,24.0,73,https://map.kakao.com/?q=청주시 상당구 문의문화재단지,1,2020,겨울,7845,"['여행/레저', '관광명소', '관광단지']",청주시 상당구 문의문화재단지,충북 청주시 상당구 문의면 문산리 산 6-1 ,36.5087356,127.4935173,23.24794520547945
391,391,420,충북,보은군,보은드론전용비행시험장,24.75,4,https://map.kakao.com/?q=보은군 보은드론전용비행시험장,1,2020,겨울,1490,"['여행/레저', '레저/스포츠', '레저/스포츠기타']",보은군 보은드론전용비행시험장,충북 보은군 산외면 신정리 276-2 ,36.574013,127.800351,39.675
392,392,421,충북,옥천군,부소담악,18.71948051948052,385,https://map.kakao.com/?q=옥천군 부소담악,1,2020,겨울,4289,"['여행/레저', '관광명소', '관광명소기타']",옥천군 부소담악,충북 옥천군 군북면 추소리 263-3 ,36.3523425,127.5637212,13.772051948051946
393,393,422,충북,옥천군,카페삼양리,24.45454545454545,11,https://map.kakao.com/?q=옥천군 카페삼양리,1,2020,겨울,488,"['생활편의', '카페', '커피전문점']",옥천군 카페삼양리,충북 옥천군 옥천읍 삼양리 223-15 1층,36.30390670000001,127.5665521,19.779999999999994
394,394,423,충북,옥천군,육영수생가지,23.83695652173913,92,https://map.kakao.com/?q=옥천군 육영수생가지,1,2020,겨울,948,"['여행/레저', '관광명소', '고택/생가/민속마을']",옥천군 육영수생가지,충북 옥천군 옥천읍 교동리 313 ,36.3180285,127.5874421,17.304130434782607
395,395,424,충북,제천시,충주호관광선청풍나루,22.761538461538464,130,https://map.kakao.com/?q=제천시 충주호관광선청풍나루,1,2020,겨울,805,"['교통편의', '교통시설', '항구']",제천시 충주호관광선청풍나루,충북 제천시 청풍면 읍리 51 ,37.008056,128.17260819999998,16.304615384615385
396,396,425,충북,보은군,천황사,22.0,1,https://map.kakao.com/?q=보은군 천황사,1,2020,겨울,23561,"['생활편의', '종교', '절']",보은군 천황사,충북 보은군 속리산면 도화리 36-2 ,36.5238235,127.8582216,1429.06
397,397,426,충북,진천군,진천선수촌태극광장,21.28712871287129,202,https://map.kakao.com/?q=진천군 진천선수촌태극광장,1,2020,겨울,79,"['여행/레저', '관광명소', '공원']",진천군 진천선수촌태극광장,충북 진천군 광혜원면 회죽리 732 ,36.9708924,127.4278383,14.924455445544556
398,398,427,충북,괴산군,연하협구름다리,23.97872340425532,47,https://map.kakao.com/?q=괴산군 연하협구름다리,1,2020,겨울,2114,"['여행/레저', '관광명소', '관광명소기타']",괴산군 연하협구름다리,충북 괴산군 칠성면 사은리 940 ,36.7357961,127.8566438,19.48382978723404
399,399,428,충북,보은군,속리토속음식점,26.90909090909091,11,https://map.kakao.com/?q=보은군 속리토속음식점,1,2020,겨울,788,"['생활편의', '카페', '커피전문점']",보은군 속리토속음식점,충북 보은군 속리산면 사내리 280-1 ,36.53132799999999,127.8218394,23.13454545454545
400,400,429,충북,괴산군,수옥폭포관광단지,22.8,20,https://map.kakao.com/?q=괴산군 수옥폭포관광단지,1,2020,겨울,1024,"['여행/레저', '관광명소', '관광단지']",괴산군 수옥폭포관광단지,충북 괴산군 연풍면 원풍리 860 ,36.8009907,128.0206847,19.032
401,401,430,충북,청주시 서원구,블루체어라운지카페,15.35897435897436,78,https://map.kakao.com/?q=청주시 서원구 블루체어라운지카페,1,2020,겨울,517,"['생활편의', '카페', '커피전문점']",청주시 서원구 블루체어라운지카페,충북 청주시 서원구 미평동 323-1 1층,36.6010013,127.4588523,11.148974358974359
402,402,431,충북,청주시 서원구,대산보리밥,25.5,28,https://map.kakao.com/?q=청주시 서원구 대산보리밥,1,2020,겨울,4149,"['생활편의', '카페', '커피전문점']",청주시 서원구 대산보리밥,충북 청주시 서원구 죽림동 77-2 ,36.6095759,127.44446299999998,26.740714285714283
403,403,432,충북,단양군,단양팔경휴게소부산방향,30.0,1,https://map.kakao.com/?q=단양군 단양팔경휴게소부산방향,1,2020,겨울,302,"['교통편의', '교통시설', '고속도로휴게소']",단양군 단양팔경휴게소부산방향,충북 단양군 적성면 기동리 423-1 ,36.9953765,128.28756040000002,39.12000000000001
404,404,433,충북,청주시 흥덕구,복대가경시장,26.038461538461537,26,https://map.kakao.com/?q=청주시 흥덕구 복대가경시장,1,2020,겨울,3128,"['쇼핑', '시장', '종합시장']",청주시 흥덕구 복대가경시장,충북 청주시 흥덕구 복대동 1121 ,36.6293314,127.4429692,25.445384615384608
405,405,434,충북,옥천군,옥천묘목축제,12.402985074626866,134,https://map.kakao.com/?q=옥천군 옥천묘목축제,1,2020,겨울,2738,"['여행/레저', '관광명소', '축제']",옥천군 옥천묘목축제,충북 옥천군 이원면 건진리 107 ,36.2519053,127.6271273,9.908059701492537
406,406,435,충북,괴산군,더텐트펜션,20.0,2,https://map.kakao.com/?q=괴산군 더텐트펜션,1,2020,겨울,85024,"['여행/레저', '숙박', '펜션']",괴산군 더텐트펜션,충북 괴산군 청천면 후영리 68-2 ,36.70364489999999,127.807759,2564.72
407,407,436,충북,괴산군,도레미캠핑장,22.74074074074073,27,https://map.kakao.com/?q=괴산군 도레미캠핑장,1,2020,겨울,1097,"['여행/레저', '레저/스포츠', '캠프장']",괴산군 도레미캠핑장,충북 괴산군 불정면 세평리 214 ,36.8575935,127.820299,18.35629629629629
408,408,437,충북,영동군,킹스크로스인어반영동점,18.25,4,https://map.kakao.com/?q=영동군 킹스크로스인어반영동점,1,2020,겨울,371,"['생활편의', '카페', '커피전문점']",영동군 킹스크로스인어반영동점,충북 영동군 영동읍 계산리 707-6 ,36.1764936,127.77694309999998,18.34
409,409,438,충북,보은군,샤브나무,25.0,1,https://map.kakao.com/?q=보은군 샤브나무,1,2020,겨울,79782,"['생활편의', '음식점', '전문음식점']",보은군 샤브나무,충북 보은군 보은읍 이평리 157-2 ,36.4858662,127.7258262,4804.42
410,410,439,충북,옥천군,수생식물학습원,14.34162895927602,442,https://map.kakao.com/?q=옥천군 수생식물학습원,1,2020,겨울,1124,"['여행/레저', '관광명소', '동식물원']",옥천군 수생식물학습원,충북 옥천군 군북면 대정리 100-10 ,36.3907183,127.5534255,10.191719457013576
411,411,441,충북,청주시 청원구,정북동토성,22.37719298245614,114,https://map.kakao.com/?q=청주시 청원구 정북동토성,1,2020,겨울,4194,"['여행/레저', '관광명소', '성']",청주시 청원구 정북동토성,충북 청주시 청원구 정북동 351-1 ,36.6885668,127.4561977,17.871403508771927
412,412,442,충북,괴산군,산막이옛길숲체험관,23.0,1,https://map.kakao.com/?q=괴산군 산막이옛길숲체험관,1,2020,겨울,424,"['여행/레저', '여행/레저기타', '여행/레저기타']",괴산군 산막이옛길숲체험관,충북 괴산군 칠성면 외사리 152 ,36.7700902,127.8399564,41.54
413,413,443,충북,괴산군,충청도양반길2코스,20.98260869565217,115,https://map.kakao.com/?q=괴산군 충청도양반길2코스,1,2020,겨울,1324,"['여행/레저', '여행/레저기타', '여행/레저기타']",괴산군 충청도양반길2코스,충북 괴산군 청천면 운교리 665 ,36.7105336,127.8491717,15.378608695652172
414,414,444,충북,괴산군,글램하우스펜션,25.76923076923077,13,https://map.kakao.com/?q=괴산군 글램하우스펜션,1,2020,겨울,508,"['여행/레저', '숙박', '펜션']",괴산군 글램하우스펜션,충북 괴산군 청천면 귀만리 471-1 ,36.6264752,127.7499641,20.383076923076924
415,415,445,충북,옥천군,금강휴게소부산방향,4.0,1,https://map.kakao.com/?q=옥천군 금강휴게소부산방향,1,2020,겨울,1408,"['교통편의', '교통시설', '고속도로휴게소']",옥천군 금강휴게소부산방향,충북 옥천군 동이면 조령리 576 ,36.2789676,127.6720376,87.28
416,416,446,충북,옥천군,토닥,23.0,3,https://map.kakao.com/?q=옥천군 토닥,1,2020,겨울,53788,"['생활편의', '카페', '커피전문점']",옥천군 토닥,충북 옥천군 안내면 현리 102-4 ,36.3930985,127.6605396,1091.86
417,417,447,충북,청주시 상당구,옥화자연휴양림,26.214285714285715,14,https://map.kakao.com/?q=청주시 상당구 옥화자연휴양림,1,2020,겨울,3071,"['여행/레저', '관광명소', '자연휴양림']",청주시 상당구 옥화자연휴양림,충북 청주시 상당구 미원면 운암리 산 61-2 ,36.6510445,127.4870295,31.51142857142857
418,418,448,충북,증평군,증평자전거공원,20.849206349206348,126,https://map.kakao.com/?q=증평군 증평자전거공원,1,2020,겨울,574,"['여행/레저', '관광명소', '공원']",증평군 증평자전거공원,충북 증평군 증평읍 남하리 1017-36 ,36.7671278,127.60444309999998,14.867777777777775
419,419,449,충북,보은군,솔향공원스카이바이크,20.723926380368106,163,https://map.kakao.com/?q=보은군 솔향공원스카이바이크,1,2020,겨울,760,"['여행/레저', '관광명소', '관광명소기타']",보은군 솔향공원스카이바이크,충북 보은군 속리산면 갈목리 산 18-1 ,36.4974629,127.7978531,14.786503067484665
420,420,450,충북,보은군,솔밭공원,25.57142857142857,7,https://map.kakao.com/?q=보은군 솔밭공원,1,2020,겨울,21837,"['여행/레저', '관광명소', '공원']",보은군 솔밭공원,충북 보은군 탄부면 임한리 116-1 ,36.4477549,127.8048159,205.07428571428574
421,421,451,충북,보은군,키즈드림오토캠핑장,23.69565217391305,23,https://map.kakao.com/?q=보은군 키즈드림오토캠핑장,1,2020,겨울,74,"['여행/레저', '레저/스포츠', '캠프장']",보은군 키즈드림오토캠핑장,충북 보은군 내북면 상궁리 46-2 ,36.5441339,127.6536035,16.78
422,422,452,충북,옥천군,향수옥천포도복숭아축제,14.396825396825395,63,https://map.kakao.com/?q=옥천군 향수옥천포도복숭아축제,1,2020,겨울,3421,"['여행/레저', '관광명소', '축제']",옥천군 향수옥천포도복숭아축제,충북 옥천군 옥천읍 문정리 390 옥천공설운동장 일원,36.302366,127.573836,13.335873015873014
423,423,453,충북,진천군,진천재래시장,28.0,1,https://map.kakao.com/?q=진천군 진천재래시장,1,2020,겨울,1649,"['쇼핑', '시장', '재래시장']",진천군 진천재래시장,충북 진천군 진천읍 성석리 629 ,36.8608907,127.4507564,118.54
424,424,454,충북,영동군,실상사,25.0,1,https://map.kakao.com/?q=영동군 실상사,1,2020,겨울,42634,"['생활편의', '종교', '절']",영동군 실상사,충북 영동군 양강면 죽촌리 341 ,36.1332687,127.7955824,2575.5400000000004
425,425,455,충북,괴산군,괴강관광농원카라반캠핑장,23.37037037037037,27,https://map.kakao.com/?q=괴산군 괴강관광농원카라반캠핑장,1,2020,겨울,1424,"['여행/레저', '레저/스포츠', '캠프장']",괴산군 괴강관광농원카라반캠핑장,충북 괴산군 칠성면 두천리 378-1 ,36.7991593,127.8241649,19.523703703703703
426,426,456,충북,괴산군,괴산시장,19.75280898876405,89,https://map.kakao.com/?q=괴산군 괴산시장,1,2020,겨울,52584,"['쇼핑', '시장', '재래시장']",괴산군 괴산시장,충북 괴산군 괴산읍 동부리 549-6 ,36.81106079999999,127.7941356,49.276853932584274
427,427,457,충북,청주시 청원구,반도프라임볼링타운,21.714285714285715,7,https://map.kakao.com/?q=청주시 청원구 반도프라임볼링타운,1,2020,겨울,51,"['여행/레저', '레저/스포츠', '볼링장']",청주시 청원구 반도프라임볼링타운,"충북 청주시 청원구 오창읍 양청리 785-3 3,4층",36.71693610000001,127.4283573,15.637142857142855
428,428,458,충북,청주시 상당구,국립청주박물관,24.02941176470589,34,https://map.kakao.com/?q=청주시 상당구 국립청주박물관,1,2020,겨울,8954,"['생활편의', '문화생활시설', '박물관/기념관']",청주시 상당구 국립청주박물관,충북 청주시 상당구 명암동 87 ,36.64916229999999,127.5121883,32.621764705882356
429,429,459,충북,괴산군,수옥폭포,19.179310344827584,145,https://map.kakao.com/?q=괴산군 수옥폭포,1,2020,겨울,8153,"['여행/레저', '관광명소', '폭포/계곡']",괴산군 수옥폭포,충북 괴산군 연풍면 원풍리 ,36.7996,128.0302148,16.799172413793098
430,430,460,대전,대덕구,대청댐물문화관,21.65100671140939,149,https://map.kakao.com/?q=대덕구 대청댐물문화관,1,2020,겨울,2352,"['생활편의', '문화생활시설', '전시장']",대덕구 대청댐물문화관,대전 대덕구 미호동 1-5 ,36.4743145,127.4816416,16.102818791946305
431,431,461,대전,대덕구,두두당,18.37130801687764,237,https://map.kakao.com/?q=대덕구 두두당,1,2020,겨울,1482,"['생활편의', '카페', '커피전문점']",대덕구 두두당,대전 대덕구 용호동 53 ,36.448219,127.4507324,13.235105485232069
432,432,462,대전,대덕구,대청호,18.441734417344172,369,https://map.kakao.com/?q=대덕구 대청호,1,2020,겨울,125606,"['여행/레저', '관광명소', '호수']",대덕구 대청호,대전 대덕구 미호동 472-2 ,36.4559422,127.473255,33.332953929539286
433,433,463,대전,대덕구,카페아마떼대청호점,14.0,1,https://map.kakao.com/?q=대덕구 카페아마떼대청호점,1,2020,겨울,5,"['생활편의', '카페', '커피전문점']",대덕구 카페아마떼대청호점,대전 대덕구 삼정동 268-1 ,36.447828,127.4654555,10.1
434,434,464,대전,대덕구,금강로하스대청공원,16.604060913705585,197,https://map.kakao.com/?q=대덕구 금강로하스대청공원,1,2020,겨울,4269,"['여행/레저', '관광명소', '공원']",대덕구 금강로하스대청공원,대전 대덕구 미호동 57 ,36.47359960000001,127.4735685,12.923045685279188
435,435,465,대전,대덕구,장동산림욕장,22.01360544217687,147,https://map.kakao.com/?q=대덕구 장동산림욕장,1,2020,겨울,5158,"['여행/레저', '레저/스포츠', '산림욕장']",대덕구 장동산림욕장,대전 대덕구 장동 산 61 ,36.4034362,127.4449894,17.514829931972788
436,436,466,대전,중구,대전오월드,5.143564356435643,606,https://map.kakao.com/?q=중구 대전오월드,1,2020,겨울,23126,"['여행/레저', '관광명소', '유원지']",중구 대전오월드,대전 중구 사정동 117-1 ,36.2905909,127.3983621,5.890198019801979
437,437,467,대전,중구,대전아쿠아리움,15.982222222222227,225,https://map.kakao.com/?q=중구 대전아쿠아리움,1,2020,겨울,17210,"['여행/레저', '관광명소', '수족관']",중구 대전아쿠아리움,대전 중구 대사동 198-14 ,36.3098971,127.42071740000002,15.776888888888893
438,438,468,대전,중구,뿌리공원,19.532432432432433,370,https://map.kakao.com/?q=중구 뿌리공원,1,2020,겨울,24061,"['여행/레저', '관광명소', '공원']",중구 뿌리공원,대전 중구 침산동 산 34 ,36.2850292,127.3885808,17.574486486486485
439,439,469,대전,대덕구,신탄진휴게소서울방향,21.58333333333333,12,https://map.kakao.com/?q=대덕구 신탄진휴게소서울방향,1,2020,겨울,1760,"['교통편의', '교통시설', '고속도로휴게소']",대덕구 신탄진휴게소서울방향,대전 대덕구 상서동 236-1 ,36.42827379999999,127.4179957,23.90833333333333
440,440,470,대전,대덕구,중리시장,25.490566037735853,159,https://map.kakao.com/?q=대덕구 중리시장,1,2020,겨울,20530,"['쇼핑', '시장', '재래시장']",대덕구 중리시장,대전 대덕구 중리동 370-3 ,36.3661311,127.42627040000002,25.590566037735854
441,441,471,대전,동구,대전중앙시장,16.870259481037927,501,https://map.kakao.com/?q=동구 대전중앙시장,1,2020,겨울,10586,"['쇼핑', '시장', '종합시장']",동구 대전중앙시장,대전 동구 원동 51-1 ,36.3295329,127.4331895,13.076966067864273
442,442,472,대전,서구,장태산자연휴양림,15.929260450160772,311,https://map.kakao.com/?q=서구 장태산자연휴양림,1,2020,겨울,9720,"['여행/레저', '관광명소', '자연휴양림']",서구 장태산자연휴양림,대전 서구 장안동 산 46 ,36.2164956,127.340197,13.025723472668808
443,443,473,대전,서구,한밭수목원,15.233766233766234,308,https://map.kakao.com/?q=서구 한밭수목원,1,2020,겨울,47723,"['여행/레저', '레저/스포츠', '산림욕장']",서구 한밭수목원,대전 서구 만년동 396 ,36.3674851,127.3880222,19.96032467532468
444,444,474,대전,유성구,수통골감나무집본점,23.76923076923077,65,https://map.kakao.com/?q=유성구 수통골감나무집본점,1,2020,겨울,223,"['생활편의', '음식점', '전문음식점']",유성구 수통골감나무집본점,대전 유성구 덕명동 181-2 ,36.34661610000001,127.2917856,16.84430769230769
445,445,475,대전,유성구,대전컨벤션센터,13.922131147540984,244,https://map.kakao.com/?q=유성구 대전컨벤션센터,1,2020,겨울,20689,"['생활편의', '문화생활시설', '전시장']",유성구 대전컨벤션센터,대전 유성구 도룡동 4-19 ,36.3749012,127.3916831,14.832950819672133
446,446,476,대전,유성구,유성시장,25.33333333333333,3,https://map.kakao.com/?q=유성구 유성시장,1,2020,겨울,91503,"['쇼핑', '시장', '재래시장']",유성구 유성시장,대전 유성구 장대동 191-7 ,36.3577193,127.333944,1847.793333333333
447,447,477,대전,동구,팡시온카페,17.670886075949365,316,https://map.kakao.com/?q=동구 팡시온카페,1,2020,겨울,3219,"['생활편의', '카페', '커피전문점']",동구 팡시온카페,대전 동구 신촌동 362-4 ,36.3778179,127.5040726,12.980822784810126
448,448,478,대전,중구,문창시장,26.12,25,https://map.kakao.com/?q=중구 문창시장,1,2020,겨울,5896,"['쇼핑', '시장', '재래시장']",중구 문창시장,대전 중구 문창동 397-3 ,36.3157232,127.4374188,32.4344
449,449,479,대전,서구,대전시립미술관,28.0,2,https://map.kakao.com/?q=서구 대전시립미술관,1,2020,겨울,18595,"['생활편의', '문화생활시설', '미술관']",서구 대전시립미술관,대전 서구 만년동 396 ,36.3674851,127.3880222,577.45
450,450,480,대전,중구,보문산전망대,23.07692307692308,13,https://map.kakao.com/?q=중구 보문산전망대,1,2020,겨울,5949,"['여행/레저', '관광명소', '전망대']",중구 보문산전망대,대전 중구 대사동 산 1-27 ,36.3135839,127.4253339,43.610769230769215
451,451,481,대전,서구,엑스포시민광장,16.571428571428573,35,https://map.kakao.com/?q=서구 엑스포시민광장,1,2020,겨울,7924,"['여행/레저', '관광명소', '공원']",서구 엑스포시민광장,대전 서구 만년동 396 ,36.3674851,127.3880222,25.184
452,452,482,대전,동구,우송예술회관,14.703125,64,https://map.kakao.com/?q=동구 우송예술회관,1,2020,겨울,3518,"['생활편의', '문화생활시설', '공연장']",동구 우송예술회관,대전 동구 자양동 155-3 ,36.33817379999999,127.4458014,13.5903125
453,453,483,대전,중구,KB손해보험대전지점,26.33333333333333,3,https://map.kakao.com/?q=중구 KB손해보험대전지점,1,2020,겨울,788,"['금융편의', '제2금융', '비생명보험']",중구 KB손해보험대전지점,대전 중구 대흥동 497 KB손해보험빌딩 8층,36.32664260000001,127.4220481,34.19333333333333
454,454,484,대전,대덕구,스타벅스대전ICDT점,27.56,25,https://map.kakao.com/?q=대덕구 스타벅스대전ICDT점,1,2020,겨울,16,"['생활편의', '카페', '커피전문점']",대덕구 스타벅스대전ICDT점,대전 대덕구 비래동 555-15 ,36.3542137,127.4445324,19.3304
455,455,485,대전,대덕구,비래키키,24.592592592592588,27,https://map.kakao.com/?q=대덕구 비래키키,1,2020,겨울,951,"['생활편의', '카페', '커피전문점']",대덕구 비래키키,대전 대덕구 비래동 437 ,36.36781819999999,127.4492609,19.328148148148145
456,456,486,대전,동구,해돋이전망대,21.0,24,https://map.kakao.com/?q=동구 해돋이전망대,1,2020,겨울,40714,"['여행/레저', '관광명소', '전망대']",동구 해돋이전망대,대전 동구 세천동 603 ,36.3007676,127.4803862,116.485
457,457,487,대전,동구,더리스레스토랑,23.466666666666665,45,https://map.kakao.com/?q=동구 더리스레스토랑,1,2020,겨울,1789,"['생활편의', '음식점', '전문음식점']",동구 더리스레스토랑,대전 동구 마산동 439-9 ,36.386104,127.4840858,18.812
458,458,488,대전,동구,만인산자연휴양림,20.96969696969697,33,https://map.kakao.com/?q=동구 만인산자연휴양림,1,2020,겨울,6658,"['여행/레저', '관광명소', '자연휴양림']",동구 만인산자연휴양림,대전 동구 하소동 산 47 ,36.203247,127.44555420000002,26.784242424242425
459,459,489,대전,대덕구,로하스가족공원캠핑장,25.288659793814432,97,https://map.kakao.com/?q=대덕구 로하스가족공원캠핑장,1,2020,겨울,1475,"['여행/레저', '레저/스포츠', '캠프장']",대덕구 로하스가족공원캠핑장,대전 대덕구 미호동 472-2 ,36.4559422,127.473255,18.61443298969072
460,460,490,대전,대덕구,계족산황톳길,17.59036144578313,249,https://map.kakao.com/?q=대덕구 계족산황톳길,1,2020,겨울,12556,"['여행/레저', '여행/레저기타', '여행/레저기타']",대덕구 계족산황톳길,대전 대덕구 장동 453-1 ,36.4065932,127.4384235,15.33879518072289
461,461,491,대전,서구,도마큰시장,25.0,3,https://map.kakao.com/?q=서구 도마큰시장,1,2020,겨울,2251,"['쇼핑', '시장', '재래시장']",서구 도마큰시장,대전 서구 도마동 502 ,36.3155068,127.380699,62.52
462,462,492,대전,서구,한민시장,23.25,4,https://map.kakao.com/?q=서구 한민시장,1,2020,겨울,14474,"['쇼핑', '시장', '재래시장']",서구 한민시장,대전 서구 괴정동 88-6 ,36.3344687,127.3842839,233.385
463,463,493,세종,세종특별자치시,세종호수공원,4.860197368421051,608,https://map.kakao.com/?q=세종특별자치시 세종호수공원,1,2020,겨울,57163,"['여행/레저', '관광명소', '공원']",세종특별자치시 세종호수공원,세종특별자치시 연기면 세종리 114-380 ,36.49854970000001,127.2734101,9.043223684210526
464,464,495,세종,세종특별자치시,에브리선데이커피,22.352941176470583,34,https://map.kakao.com/?q=세종특별자치시 에브리선데이커피,1,2020,겨울,1938,"['생활편의', '카페', '커피전문점']",세종특별자치시 에브리선데이커피,세종특별자치시 연서면 용암리 25-1 ,36.6022887,127.2338265,19.067058823529404
465,465,497,충남,서산시,고파도해수욕장,3.0,1,https://map.kakao.com/?q=서산시 고파도해수욕장,2,2020,겨울,1332,"['여행/레저', '관광명소', '해수욕장']",서산시 고파도해수욕장,충남 서산시 팔봉면 고파도리 ,36.90757,126.3374823,82.02
466,466,498,충남,서산시,고파도,22.0,1,https://map.kakao.com/?q=서산시 고파도,2,2020,겨울,87478,"['여행/레저', '관광명소', '섬']",서산시 고파도,충남 서산시 팔봉면 고파도리 ,36.90757,126.3374823,5264.08
467,467,499,충남,태안군,운여해수욕장,25.75,4,https://map.kakao.com/?q=태안군 운여해수욕장,2,2020,겨울,2001,"['여행/레저', '관광명소', '해수욕장']",태안군 운여해수욕장,충남 태안군 고남면 장곡리 ,36.4309938,126.3780996,48.04
468,468,500,충남,태안군,바람아래해수욕장,24.340425531914892,47,https://map.kakao.com/?q=태안군 바람아래해수욕장,2,2020,겨울,6476,"['여행/레저', '관광명소', '해수욕장']",태안군 바람아래해수욕장,충남 태안군 고남면 장곡리 422-54 ,36.4309938,126.3780996,25.305531914893606
469,469,501,충남,태안군,진달래먹고물장구치고,21.46153846153846,13,https://map.kakao.com/?q=태안군 진달래먹고물장구치고,2,2020,겨울,528,"['생활편의', '카페', '커피전문점']",태안군 진달래먹고물장구치고,충남 태안군 소원면 모항리 1323-269 ,36.7685619,126.1412846,17.459999999999994
470,470,502,충남,천안시 동남구,무지개식당,26.0,1,https://map.kakao.com/?q=천안시 동남구 무지개식당,2,2020,겨울,1254,"['생활편의', '카페', '커피전문점']",천안시 동남구 무지개식당,충남 천안시 동남구 목천읍 운전리 561 ,36.7632735,127.2284861,93.44
471,471,503,충남,태안군,생생왕꽃게,30.0,1,https://map.kakao.com/?q=태안군 생생왕꽃게,2,2020,겨울,2367,"['생활편의', '음식점', '전문음식점']",태안군 생생왕꽃게,충남 태안군 남면 당암리 2-18 1층,36.6218303,126.34986,163.02
472,472,504,충남,논산시,늘커피,24.57142857142857,14,https://map.kakao.com/?q=논산시 늘커피,2,2020,겨울,1848817,"['생활편의', '카페', '커피전문점']",논산시 늘커피,충남 논산시 가야곡면 종연리 494-19 ,36.1740214,127.1506605,7940.7014285714295
473,473,506,충남,논산시,양촌자연휴양림,25.066666666666666,30,https://map.kakao.com/?q=논산시 양촌자연휴양림,2,2020,겨울,1546,"['여행/레저', '관광명소', '자연휴양림']",논산시 양촌자연휴양림,충남 논산시 양촌면 남산리 산 12-4 ,36.1583741,127.2481732,20.638666666666666
474,474,507,충남,청양군,청양동강리오토캠핑장,20.238805970149254,67,https://map.kakao.com/?q=청양군 청양동강리오토캠핑장,2,2020,겨울,451,"['여행/레저', '레저/스포츠', '캠프장']",청양군 청양동강리오토캠핑장,충남 청양군 청남면 동강리 93 ,36.3383599,126.975413,14.571044776119402
475,475,508,충남,청양군,청양도림사지,19.367816091954023,87,https://map.kakao.com/?q=청양군 청양도림사지,2,2020,겨울,860,"['여행/레저', '관광명소', '문화유적지']",청양군 청양도림사지,충남 청양군 장평면 적곡리 산 6-1 ,36.39910220000001,126.8935452,14.150574712643676
476,476,509,충남,보령시,CU보령발전소점,25.5,80,https://map.kakao.com/?q=보령시 CU보령발전소점,2,2020,겨울,0,"['쇼핑', '대형유통점', '편의점']",보령시 CU보령발전소점,충남 보령시 오천면 오포리 726-10 ,36.39667350000001,126.5006834,17.849999999999994
477,477,510,충남,서천군,한산모시문화제,18.58333333333333,24,https://map.kakao.com/?q=서천군 한산모시문화제,2,2020,겨울,3892,"['여행/레저', '관광명소', '축제']",서천군 한산모시문화제,충남 서천군 한산면 지현리 60-1 한산모시관 일원,36.07977,126.79983500000002,22.73833333333333
478,478,511,충남,보령시,독산해수욕장,17.730878186968837,353,https://map.kakao.com/?q=보령시 독산해수욕장,2,2020,겨울,3724,"['여행/레저', '관광명소', '해수욕장']",보령시 독산해수욕장,충남 보령시 웅천읍 독산리 ,36.2314854,126.540506,13.044589235127475
479,479,512,충남,금산군,금산역사문화박물관,17.666666666666668,3,https://map.kakao.com/?q=금산군 금산역사문화박물관,2,2020,겨울,2562,"['생활편의', '문화생활시설', '박물관/기념관']",금산군 금산역사문화박물관,충남 금산군 금산읍 중도리 203-28 ,36.1119507,127.49215490000002,63.60666666666666
480,480,514,충남,금산군,남일면홍도화축제,15.857142857142858,42,https://map.kakao.com/?q=금산군 남일면홍도화축제,2,2020,겨울,497,"['여행/레저', '관광명소', '축제']",금산군 남일면홍도화축제,충남 금산군 남일면 신정리 183 홍도리마을 일원,36.01711010000001,127.5180376,11.81
481,481,515,충남,금산군,메가커피금산점,26.5,2,https://map.kakao.com/?q=금산군 메가커피금산점,2,2020,겨울,1,"['생활편의', '카페', '커피전문점']",금산군 메가커피금산점,충남 금산군 금산읍 상리 20-7 ,36.1099628,127.4871394,18.58
482,482,516,충남,천안시 동남구,태학산자연휴양림,22.884615384615394,26,https://map.kakao.com/?q=천안시 동남구 태학산자연휴양림,2,2020,겨울,1712,"['여행/레저', '관광명소', '자연휴양림']",천안시 동남구 태학산자연휴양림,충남 천안시 동남구 풍세면 삼태리 399-1 ,36.7292271,127.0916054,19.970000000000006
483,483,517,충남,부여군,커피베이부여궁남점,26.5,2,https://map.kakao.com/?q=부여군 커피베이부여궁남점,2,2020,겨울,6,"['생활편의', '카페', '커피전문점']",부여군 커피베이부여궁남점,"충남 부여군 부여읍 동남리 177-1 1,2층",36.2726944,126.9102877,18.73
484,484,518,충남,부여군,투썸플레이스부여궁남점,27.33333333333333,3,https://map.kakao.com/?q=부여군 투썸플레이스부여궁남점,2,2020,겨울,3,"['생활편의', '카페', '커피전문점']",부여군 투썸플레이스부여궁남점,충남 부여군 부여읍 동남리 185-4 ,36.272731,126.9107446,19.193333333333328
485,485,519,충남,청양군,메르시,26.222222222222207,9,https://map.kakao.com/?q=청양군 메르시,2,2020,겨울,110956,"['생활편의', '카페', '커피전문점']",청양군 메르시,충남 청양군 청양읍 벽천리 702 ,36.438005,126.7999674,758.0622222222221
486,486,520,충남,부여군,세븐일레븐부여롯데아울렛점,26.0,1,https://map.kakao.com/?q=부여군 세븐일레븐부여롯데아울렛점,2,2020,겨울,0,"['쇼핑', '대형유통점', '편의점']",부여군 세븐일레븐부여롯데아울렛점,충남 부여군 규암면 합정리 172 1층,36.3070242,126.9017799,18.2
487,487,521,충남,부여군,금강자전거길,30.0,1,https://map.kakao.com/?q=부여군 금강자전거길,2,2020,겨울,18299,"['교통편의', '자동차시설', '자전거']",부여군 금강자전거길,전북 익산시 용안면 난포리 506-2 ,36.1304289,126.9253838,1118.94
488,488,522,충남,보령시,용두해수욕장,22.357142857142854,98,https://map.kakao.com/?q=보령시 용두해수욕장,2,2020,겨울,7466,"['여행/레저', '관광명소', '해수욕장']",보령시 용두해수욕장,충남 보령시 남포면 월전리 787-16 ,36.2656289,126.5486637,20.221020408163266
489,489,523,충남,논산시,메가커피연무대점,26.0,2,https://map.kakao.com/?q=논산시 메가커피연무대점,2,2020,겨울,9,"['생활편의', '카페', '커피전문점']",논산시 메가커피연무대점,충남 논산시 연무읍 동산리 901-1 1층,36.1327781,127.0998285,18.47
490,490,524,충남,천안시 동남구,광덕사,25.125,16,https://map.kakao.com/?q=천안시 동남구 광덕사,2,2020,겨울,19110,"['생활편의', '종교', '절']",천안시 동남구 광덕사,충남 천안시 동남구 광덕면 광덕리 640 ,36.67568170000001,127.0424345,89.25
491,491,525,충남,서산시,용현자연휴양림,19.34536082474227,194,https://map.kakao.com/?q=서산시 용현자연휴양림,2,2020,겨울,6083,"['여행/레저', '관광명소', '자연휴양림']",서산시 용현자연휴양림,충남 서산시 운산면 용현리 89-4 ,36.7515753,126.60844509999998,15.423092783505151
492,492,526,충남,서천군,바다해물나라펜션,27.0,1,https://map.kakao.com/?q=서천군 바다해물나라펜션,2,2020,겨울,204,"['여행/레저', '숙박', '펜션']",서천군 바다해물나라펜션,충남 서천군 비인면 선도리 590-118 ,36.1368179,126.5794216,31.14
493,493,527,충남,서천군,서천휴게소목포방향,24.5,2,https://map.kakao.com/?q=서천군 서천휴게소목포방향,2,2020,겨울,824,"['교통편의', '교통시설', '고속도로휴게소']",서천군 서천휴게소목포방향,충남 서천군 비인면 성산리 416-1 ,36.129067,126.6266646,41.87000000000001
494,494,529,충남,태안군,해피준카페,27.25,4,https://map.kakao.com/?q=태안군 해피준카페,2,2020,겨울,67804,"['생활편의', '카페', '커피전문점']",태안군 해피준카페,충남 태안군 소원면 파도리 687-2 ,36.7348857,126.1387204,1036.135
495,495,530,충남,태안군,몽산포오토캠핑장,23.896825396825395,126,https://map.kakao.com/?q=태안군 몽산포오토캠핑장,2,2020,겨울,5406,"['여행/레저', '레저/스포츠', '캠프장']",태안군 몽산포오토캠핑장,충남 태안군 남면 신장리 355-50 ,36.6697762,126.2894509,19.30206349206349
496,496,531,충남,서천군,비인해수욕장,21.89333333333333,75,https://map.kakao.com/?q=서천군 비인해수욕장,2,2020,겨울,3366,"['여행/레저', '관광명소', '해수욕장']",서천군 비인해수욕장,충남 서천군 비인면 선도리 ,36.1331671,126.5918212,18.018133333333328
497,497,532,충남,공주시,청룡창고커피,28.2,5,https://map.kakao.com/?q=공주시 청룡창고커피,2,2020,겨울,1436,"['생활편의', '카페', '커피전문점']",공주시 청룡창고커피,충남 공주시 의당면 청룡리 650-1 ,36.4982663,127.1407004,36.972
498,498,533,충남,홍성군,쉰질바위,25.75,4,https://map.kakao.com/?q=홍성군 쉰질바위,2,2020,겨울,2109,"['여행/레저', '관광명소', '관광명소기타']",홍성군 쉰질바위,충남 홍성군 장곡면 광성리 ,36.47421729999999,126.6704899,49.66
499,499,534,충남,서천군,장항오토캠핑장,25.9,30,https://map.kakao.com/?q=서천군 장항오토캠핑장,2,2020,겨울,786,"['여행/레저', '레저/스포츠', '캠프장']",서천군 장항오토캠핑장,충남 서천군 장항읍 송림리 731-44 ,36.0238653,126.67324779999998,19.702
500,500,535,충남,서천군,월하성갯벌체험장,23.268292682926827,123,https://map.kakao.com/?q=서천군 월하성갯벌체험장,2,2020,겨울,710,"['여행/레저', '관광명소', '관광명소기타']",서천군 월하성갯벌체험장,충남 서천군 서면 월호리 585-8 ,36.1328548,126.5623066,16.634146341463413
